icao_id,latitude,longitude,lat_lon_point,climate_station,nearest_climate_icao_id,nearest_climate_dist_sm,city,state,utc_offset,daily_report_start_time_utc,daily_report_end_time_utc
KOMK,48.47,-119.52,"(-119.52,48.47)",TRUE,KOMK,0, Riverside,WA,-28800,08:00:00,07:59:59
KBLI,48.8,-122.53,"(-122.53,48.8)",TRUE,KBLI,0, Bellingham,WA,-28800,08:00:00,07:59:59
KCMA,34.22,-119.1,"(-119.1,34.22)",TRUE,KCMA,0, Camarillo,CA,-28800,08:00:00,07:59:59
KMCE,37.28,-120.5,"(-120.5,37.28)",TRUE,KMCE,0, Merced,CA,-28800,08:00:00,07:59:59
KHJO,36.32,-119.62,"(-119.62,36.32)",TRUE,KHJO,0, Hanford,CA,-28800,08:00:00,07:59:59
KLAS,36.07,-115.17,"(-115.17,36.07)",TRUE,KLAS,0, Las Vegas,NV,-28800,08:00:00,07:59:59
KOAK,37.72,-122.23,"(-122.23,37.72)",TRUE,KOAK,0, Alameda,CA,-28800,08:00:00,07:59:59
KAPC,38.2,-122.28,"(-122.28,38.2)",TRUE,KAPC,0, American Canyon,CA,-28800,08:00:00,07:59:59
KHQM,46.97,-123.93,"(-123.93,46.97)",TRUE,KHQM,0, Hoquiam,WA,-28800,08:00:00,07:59:59
KTVL,38.9,-120,"(-120,38.9)",TRUE,KTVL,0, South Lake Tahoe,CA,-28800,08:00:00,07:59:59
KSAC,38.5,-121.5,"(-121.5,38.5)",TRUE,KSAC,0, Sacramento,CA,-28800,08:00:00,07:59:59
KRBG,43.23,-123.35,"(-123.35,43.23)",TRUE,KRBG,0, Roseburg,OR,-28800,08:00:00,07:59:59
KCCR,38,-122.05,"(-122.05,38)",TRUE,KCCR,0, Concord,CA,-28800,08:00:00,07:59:59
KSEA,47.45,-122.32,"(-122.32,47.45)",TRUE,KSEA,0, Burien,WA,-28800,08:00:00,07:59:59
KRNM,33.03,-116.92,"(-116.92,33.03)",TRUE,KRNM,0, Ramona,CA,-28800,08:00:00,07:59:59
KSJC,37.37,-121.92,"(-121.92,37.37)",TRUE,KSJC,0, San Jose,CA,-28800,08:00:00,07:59:59
KLAX,33.93,-118.38,"(-118.38,33.93)",TRUE,KLAX,0, El Segundo,CA,-28800,08:00:00,07:59:59
KPUW,46.75,-117.12,"(-117.12,46.75)",TRUE,KPUW,0, Pullman,WA,-28800,08:00:00,07:59:59
KYKM,46.57,-120.53,"(-120.53,46.57)",TRUE,KYKM,0, Yakima,WA,-28800,08:00:00,07:59:59
KSNA,33.67,-117.87,"(-117.87,33.67)",TRUE,KSNA,0, Santa Ana,CA,-28800,08:00:00,07:59:59
KBKE,44.85,-117.82,"(-117.82,44.85)",TRUE,KBKE,0, Baker City,OR,-28800,08:00:00,07:59:59
KBIH,37.37,-118.35,"(-118.35,37.37)",TRUE,KBIH,0, Bishop,CA,-28800,08:00:00,07:59:59
KAST,46.15,-123.88,"(-123.88,46.15)",TRUE,KAST,0, Warrenton,OR,-28800,08:00:00,07:59:59
KVUO,45.62,-122.65,"(-122.65,45.62)",TRUE,KVUO,0, Vancouver,WA,-28800,08:00:00,07:59:59
KUKI,39.12,-123.2,"(-123.2,39.12)",TRUE,KUKI,0, Ukiah,CA,-28800,08:00:00,07:59:59
KMOD,37.62,-120.95,"(-120.95,37.62)",TRUE,KMOD,0, Modesto,CA,-28800,08:00:00,07:59:59
KHIO,45.55,-122.95,"(-122.95,45.55)",TRUE,KHIO,0, Hillsboro,OR,-28800,08:00:00,07:59:59
KCZZ,32.63,-116.47,"(-116.47,32.63)",TRUE,KCZZ,0, Campo,CA,-28800,08:00:00,07:59:59
KSMX,34.9,-120.45,"(-120.45,34.9)",TRUE,KSMX,0, Santa Maria,CA,-28800,08:00:00,07:59:59
KTTD,45.55,-122.42,"(-122.42,45.55)",TRUE,KTTD,0, Troutdale,OR,-28800,08:00:00,07:59:59
KCQT,34.02,-118.28,"(-118.28,34.02)",TRUE,KCQT,0, Los Angeles,CA,-28800,08:00:00,07:59:59
KPDX,45.6,-122.62,"(-122.62,45.6)",TRUE,KPDX,0, Portland,OR,-28800,08:00:00,07:59:59
KSLE,44.9,-123,"(-123,44.9)",TRUE,KSLE,0, Salem,OR,-28800,08:00:00,07:59:59
KSTS,38.5,-122.82,"(-122.82,38.5)",TRUE,KSTS,0, Windsor,CA,-28800,08:00:00,07:59:59
KSBA,34.43,-119.85,"(-119.85,34.43)",TRUE,KSBA,0, Santa Barbara,CA,-28800,08:00:00,07:59:59
KFUL,33.87,-117.98,"(-117.98,33.87)",TRUE,KFUL,0, Fullerton,CA,-28800,08:00:00,07:59:59
KPRB,35.67,-120.63,"(-120.63,35.67)",TRUE,KPRB,0, Paso Robles,CA,-28800,08:00:00,07:59:59
KLWS,46.37,-117.02,"(-117.02,46.37)",TRUE,KLWS,0, Lewiston,ID,-28800,08:00:00,07:59:59
KWJF,34.72,-118.22,"(-118.22,34.72)",TRUE,KWJF,0, Lancaster,CA,-28800,08:00:00,07:59:59
KSDB,34.75,-118.72,"(-118.72,34.75)",TRUE,KSDB,0, Lake Hughes,CA,-28800,08:00:00,07:59:59
KMFR,42.38,-122.87,"(-122.87,42.38)",TRUE,KMFR,0, Central Point,OR,-28800,08:00:00,07:59:59
KUIL,47.93,-124.55,"(-124.55,47.93)",TRUE,KUIL,0, Forks,WA,-28800,08:00:00,07:59:59
KEKO,40.82,-115.78,"(-115.78,40.82)",TRUE,KEKO,0, Elko,NV,-28800,08:00:00,07:59:59
KNUQ,37.4,-122.05,"(-122.05,37.4)",TRUE,KNUQ,0, Mountain View,CA,-28800,08:00:00,07:59:59
KMWH,47.2,-119.32,"(-119.32,47.2)",TRUE,KMWH,0, Moses Lake,WA,-28800,08:00:00,07:59:59
KRAL,33.95,-117.45,"(-117.45,33.95)",TRUE,KRAL,0, Riverside,CA,-28800,08:00:00,07:59:59
KBUR,34.2,-118.37,"(-118.37,34.2)",TRUE,KBUR,0, North Hollywood,CA,-28800,08:00:00,07:59:59
KHWD,37.67,-122.12,"(-122.12,37.67)",TRUE,KHWD,0, Hayward,CA,-28800,08:00:00,07:59:59
KWMC,40.9,-117.8,"(-117.8,40.9)",TRUE,KWMC,0, Winnemucca,NV,-28800,08:00:00,07:59:59
KLMT,42.15,-121.72,"(-121.72,42.15)",TRUE,KLMT,0, Klamath Falls,OR,-28800,08:00:00,07:59:59
KMHS,41.32,-122.32,"(-122.32,41.32)",TRUE,KMHS,0, Mount Shasta,CA,-28800,08:00:00,07:59:59
KSCK,37.88,-121.22,"(-121.22,37.88)",TRUE,KSCK,0, Stockton,CA,-28800,08:00:00,07:59:59
KCEC,41.77,-124.22,"(-124.22,41.77)",TRUE,KCEC,0, Crescent City,CA,-28800,08:00:00,07:59:59
KMMV,45.2,-123.13,"(-123.13,45.2)",TRUE,KMMV,0, Dayton,OR,-28800,08:00:00,07:59:59
KOTH,43.42,-124.25,"(-124.25,43.42)",TRUE,KOTH,0, North Bend,OR,-28800,08:00:00,07:59:59
KOKB,33.22,-117.35,"(-117.35,33.22)",TRUE,KOKB,0, Oceanside,CA,-28800,08:00:00,07:59:59
KSNS,36.67,-121.6,"(-121.6,36.67)",TRUE,KSNS,0, Salinas,CA,-28800,08:00:00,07:59:59
KPDT,45.7,-118.83,"(-118.83,45.7)",TRUE,KPDT,0, Pendleton,OR,-28800,08:00:00,07:59:59
KWVI,36.93,-121.78,"(-121.78,36.93)",TRUE,KWVI,0, Watsonville,CA,-28800,08:00:00,07:59:59
KLVK,37.7,-121.82,"(-121.82,37.7)",TRUE,KLVK,0, Livermore,CA,-28800,08:00:00,07:59:59
KP68,39.6,-116,"(-116,39.6)",TRUE,KP68,0, Eureka,NV,-28800,08:00:00,07:59:59
K05U,39.6,-116,"(-116,39.6)",FALSE,KP68,0, Eureka,NV,-28800,08:00:00,07:59:59
KMRY,36.58,-121.85,"(-121.85,36.58)",TRUE,KMRY,0, Monterey,CA,-28800,08:00:00,07:59:59
KSIY,41.77,-122.47,"(-122.47,41.77)",TRUE,KSIY,0, Montague,CA,-28800,08:00:00,07:59:59
KTRM,33.63,-116.17,"(-116.17,33.63)",TRUE,KTRM,0, Thermal,CA,-28800,08:00:00,07:59:59
KTPH,38.05,-117.08,"(-117.08,38.05)",TRUE,KTPH,0, Tonopah,NV,-28800,08:00:00,07:59:59
KEPH,47.3,-119.52,"(-119.52,47.3)",TRUE,KEPH,0, Ephrata,WA,-28800,08:00:00,07:59:59
KPMD,34.63,-118.08,"(-118.08,34.63)",TRUE,KPMD,0, Palmdale,CA,-28800,08:00:00,07:59:59
KELY,39.3,-114.85,"(-114.85,39.3)",TRUE,KELY,0, Ely,NV,-28800,08:00:00,07:59:59
KSFF,47.68,-117.32,"(-117.32,47.68)",TRUE,KSFF,0, Spokane,WA,-28800,08:00:00,07:59:59
KDEW,47.97,-117.43,"(-117.43,47.97)",TRUE,KDEW,0, Deer Park,WA,-28800,08:00:00,07:59:59
KEUG,44.13,-123.22,"(-123.22,44.13)",TRUE,KEUG,0, Eugene,OR,-28800,08:00:00,07:59:59
KFAT,36.78,-119.72,"(-119.72,36.78)",TRUE,KFAT,0, Fresno,CA,-28800,08:00:00,07:59:59
KONT,34.05,-117.58,"(-117.58,34.05)",TRUE,KONT,0, Ontario,CA,-28800,08:00:00,07:59:59
KLGB,33.82,-118.15,"(-118.15,33.82)",TRUE,KLGB,0, Long Beach,CA,-28800,08:00:00,07:59:59
KBFL,35.43,-119.05,"(-119.05,35.43)",TRUE,KBFL,0, Bakersfield,CA,-28800,08:00:00,07:59:59
KOLM,46.97,-122.9,"(-122.9,46.97)",TRUE,KOLM,0, Olympia,WA,-28800,08:00:00,07:59:59
KPSP,33.82,-116.5,"(-116.5,33.82)",TRUE,KPSP,0, Palm Springs,CA,-28800,08:00:00,07:59:59
KEAT,47.4,-120.2,"(-120.2,47.4)",TRUE,KEAT,0, East Wenatchee,WA,-28800,08:00:00,07:59:59
KRDD,40.52,-122.3,"(-122.3,40.52)",TRUE,KRDD,0, Redding,CA,-28800,08:00:00,07:59:59
KRDM,44.25,-121.15,"(-121.15,44.25)",TRUE,KRDM,0, Redmond,OR,-28800,08:00:00,07:59:59
KRNO,39.5,-119.77,"(-119.77,39.5)",TRUE,KRNO,0, Reno,NV,-28800,08:00:00,07:59:59
KSAN,32.73,-117.18,"(-117.18,32.73)",TRUE,KSAN,0, San Diego,CA,-28800,08:00:00,07:59:59
KSFO,37.62,-122.37,"(-122.37,37.62)",TRUE,KSFO,0, San Francisco,CA,-28800,08:00:00,07:59:59
KGEG,47.62,-117.53,"(-117.53,47.62)",TRUE,KGEG,0, Spokane,WA,-28800,08:00:00,07:59:59
KPSC,46.27,-119.12,"(-119.12,46.27)",TRUE,KPSC,0, Pasco,WA,-28800,08:00:00,07:59:59
KAAT,41.48,-120.57,"(-120.57,41.48)",TRUE,KAAT,0,Alturas,CA,-28800,08:00:00,07:59:59
KIML,40.52,-101.62,"(-101.62,40.52)",TRUE,KIML,0, Imperial,NE,-25200,07:00:00,06:59:59
KPUB,38.28,-104.5,"(-104.5,38.28)",TRUE,KPUB,0, Pueblo,CO,-25200,07:00:00,06:59:59
KBYI,42.55,-113.77,"(-113.77,42.55)",TRUE,KBYI,0, Burley,ID,-25200,07:00:00,06:59:59
KBFF,41.87,-103.58,"(-103.58,41.87)",TRUE,KBFF,0, Scottsbluff,NE,-25200,07:00:00,06:59:59
KLND,42.82,-108.73,"(-108.73,42.82)",TRUE,KLND,0, Lander,WY,-25200,07:00:00,06:59:59
KNYL,32.63,-114.62,"(-114.62,32.63)",TRUE,KNYL,0, Yuma,AZ,-25200,07:00:00,06:59:59
KDIK,46.8,-102.8,"(-102.8,46.8)",TRUE,KDIK,0, Dickinson,ND,-25200,07:00:00,06:59:59
KLWT,47.03,-109.47,"(-109.47,47.03)",TRUE,KLWT,0, Lewistown,MT,-25200,07:00:00,06:59:59
KITR,39.23,-102.28,"(-102.28,39.23)",TRUE,KITR,0, Burlington,CO,-25200,07:00:00,06:59:59
KBYG,44.38,-106.72,"(-106.72,44.38)",TRUE,KBYG,0, Buffalo,WY,-25200,07:00:00,06:59:59
KWRL,43.97,-107.95,"(-107.95,43.97)",TRUE,KWRL,0, Worland,WY,-25200,07:00:00,06:59:59
KRAP,44.05,-103.05,"(-103.05,44.05)",TRUE,KRAP,0, Rapid City,SD,-25200,07:00:00,06:59:59
KVTN,42.87,-100.55,"(-100.55,42.87)",TRUE,KVTN,0, Valentine,NE,-25200,07:00:00,06:59:59
KRXE,43.83,-111.8,"(-111.8,43.83)",TRUE,KRXE,0, Rexburg,ID,-25200,07:00:00,06:59:59
KCYS,41.15,-104.8,"(-104.8,41.15)",TRUE,KCYS,0, Cheyenne,WY,-25200,07:00:00,06:59:59
KBTM,45.97,-112.5,"(-112.5,45.97)",TRUE,KBTM,0, Butte,MT,-25200,07:00:00,06:59:59
KASE,39.23,-106.87,"(-106.87,39.23)",TRUE,KASE,0, Aspen,CO,-25200,07:00:00,06:59:59
KCDR,42.83,-103.1,"(-103.1,42.83)",TRUE,KCDR,0, Chadron,NE,-25200,07:00:00,06:59:59
KCEZ,37.3,-108.63,"(-108.63,37.3)",TRUE,KCEZ,0, Cortez,CO,-25200,07:00:00,06:59:59
KSHR,44.77,-106.97,"(-106.97,44.77)",TRUE,KSHR,0, Sheridan,WY,-25200,07:00:00,06:59:59
KCTB,48.6,-112.37,"(-112.37,48.6)",TRUE,KCTB,0, Cut Bank,MT,-25200,07:00:00,06:59:59
KLHX,38.05,-103.52,"(-103.52,38.05)",TRUE,KLHX,0, La Junta,CO,-25200,07:00:00,06:59:59
KTWF,42.48,-114.48,"(-114.48,42.48)",TRUE,KTWF,0, Twin Falls,ID,-25200,07:00:00,06:59:59
KDRO,37.15,-107.77,"(-107.77,37.15)",TRUE,KDRO,0, Durango,CO,-25200,07:00:00,06:59:59
KBIL,45.8,-108.55,"(-108.55,45.8)",TRUE,KBIL,0, Billings,MT,-25200,07:00:00,06:59:59
KHLN,46.6,-111.98,"(-111.98,46.6)",TRUE,KHLN,0, Helena,MT,-25200,07:00:00,06:59:59
KONO,44.02,-117.02,"(-117.02,44.02)",TRUE,KONO,0, Ontario,OR,-25200,07:00:00,06:59:59
KIGM,35.25,-113.93,"(-113.93,35.25)",TRUE,KIGM,0, Kingman,AZ,-25200,07:00:00,06:59:59
KBZN,45.78,-111.17,"(-111.17,45.78)",TRUE,KBZN,0, Belgrade,MT,-25200,07:00:00,06:59:59
KEEO,40.05,-107.88,"(-107.88,40.05)",TRUE,KEEO,0, Meeker,CO,-25200,07:00:00,06:59:59
KVEL,40.45,-109.52,"(-109.52,40.45)",TRUE,KVEL,0, Vernal,UT,-25200,07:00:00,06:59:59
KRKS,41.6,-109.07,"(-109.07,41.6)",TRUE,KRKS,0, Rock Springs,WY,-25200,07:00:00,06:59:59
KLAR,41.32,-105.67,"(-105.67,41.32)",TRUE,KLAR,0, Laramie,WY,-25200,07:00:00,06:59:59
KJER,42.72,-114.45,"(-114.45,42.72)",TRUE,KJER,0, Jerome,ID,-25200,07:00:00,06:59:59
KHVR,48.55,-109.77,"(-109.77,48.55)",TRUE,KHVR,0, Havre,MT,-25200,07:00:00,06:59:59
KAIA,42.05,-102.8,"(-102.8,42.05)",TRUE,KAIA,0, Alliance,NE,-25200,07:00:00,06:59:59
KGPI,48.32,-114.25,"(-114.25,48.32)",TRUE,KGPI,0, Columbia Falls,MT,-25200,07:00:00,06:59:59
KLXV,39.23,-106.32,"(-106.32,39.23)",TRUE,KLXV,0, Leadville,CO,-25200,07:00:00,06:59:59
KALS,37.43,-105.87,"(-105.87,37.43)",TRUE,KALS,0, Alamosa,CO,-25200,07:00:00,06:59:59
KBPI,42.58,-110.1,"(-110.1,42.58)",TRUE,KBPI,0, Big Piney,WY,-25200,07:00:00,06:59:59
KIEN,43.03,-102.52,"(-102.52,43.03)",TRUE,KIEN,0, Pine Ridge,SD,-25200,07:00:00,06:59:59
KCAO,36.45,-103.15,"(-103.15,36.45)",TRUE,KCAO,0, Clayton,NM,-25200,07:00:00,06:59:59
KTAD,37.27,-104.33,"(-104.33,37.27)",TRUE,KTAD,0, Trinidad,CO,-25200,07:00:00,06:59:59
KSPD,37.28,-102.62,"(-102.62,37.28)",TRUE,KSPD,0, Springfield,CO,-25200,07:00:00,06:59:59
KINW,35.03,-110.72,"(-110.72,35.03)",TRUE,KINW,0, Winslow,AZ,-25200,07:00:00,06:59:59
KEVW,41.27,-111.03,"(-111.03,41.27)",TRUE,KEVW,0, Evanston,WY,-25200,07:00:00,06:59:59
KCAG,40.5,-107.52,"(-107.52,40.5)",TRUE,KCAG,0, Craig,CO,-25200,07:00:00,06:59:59
KTOR,42.07,-104.15,"(-104.15,42.07)",TRUE,KTOR,0, Torrington,WY,-25200,07:00:00,06:59:59
KAKO,40.17,-103.22,"(-103.22,40.17)",TRUE,KAKO,0, Akron,CO,-25200,07:00:00,06:59:59
KDLN,45.25,-112.55,"(-112.55,45.25)",TRUE,KDLN,0, Dillon,MT,-25200,07:00:00,06:59:59
KLAA,38.07,-102.68,"(-102.68,38.07)",TRUE,KLAA,0, Lamar,CO,-25200,07:00:00,06:59:59
KPIH,42.92,-112.57,"(-112.57,42.92)",TRUE,KPIH,0, Pocatello,ID,-25200,07:00:00,06:59:59
KRIL,39.53,-107.73,"(-107.73,39.53)",TRUE,KRIL,0, Silt,CO,-25200,07:00:00,06:59:59
KLVM,45.7,-110.43,"(-110.43,45.7)",TRUE,KLVM,0, Livingston,MT,-25200,07:00:00,06:59:59
KELP,31.82,-106.38,"(-106.38,31.82)",TRUE,KELP,0, El Paso,TX,-25200,07:00:00,06:59:59
KGCC,44.33,-105.55,"(-105.55,44.33)",TRUE,KGCC,0, Gillette,WY,-25200,07:00:00,06:59:59
KLIC,39.27,-103.67,"(-103.67,39.27)",TRUE,KLIC,0, Limon,CO,-25200,07:00:00,06:59:59
KMYL,44.9,-116.1,"(-116.1,44.9)",TRUE,KMYL,0, McCall,ID,-25200,07:00:00,06:59:59
KD07,45.03,-102.02,"(-102.02,45.03)",TRUE,KD07,0, Faith,SD,-25200,07:00:00,06:59:59
K2WX,45.6,-103.55,"(-103.55,45.6)",TRUE,K2WX,0, Buffalo,SD,-25200,07:00:00,06:59:59
KREO,42.58,-117.87,"(-117.87,42.58)",TRUE,KREO,0, Jordan Valley,OR,-25200,07:00:00,06:59:59
KDUG,31.47,-109.58,"(-109.58,31.47)",TRUE,KDUG,0, Douglas,AZ,-25200,07:00:00,06:59:59
KDGW,42.8,-105.38,"(-105.38,42.8)",TRUE,KDGW,0, Douglas,WY,-25200,07:00:00,06:59:59
KFLG,35.13,-111.67,"(-111.67,35.13)",TRUE,KFLG,0, Flagstaff,AZ,-25200,07:00:00,06:59:59
KGEY,44.52,-108.08,"(-108.08,44.52)",TRUE,KGEY,0, Greybull,WY,-25200,07:00:00,06:59:59
KMUO,43.03,-115.87,"(-115.87,43.03)",TRUE,KMUO,0, Mountain Home Air Force Base,ID,-25200,07:00:00,06:59:59
KPHP,44.05,-101.6,"(-101.6,44.05)",TRUE,KPHP,0, Philip,SD,-25200,07:00:00,06:59:59
KLLJ,44.52,-114.22,"(-114.22,44.52)",TRUE,KLLJ,0, Challis,ID,-25200,07:00:00,06:59:59
KRWL,41.78,-107.2,"(-107.2,41.78)",TRUE,KRWL,0, Rawlins,WY,-25200,07:00:00,06:59:59
KCPR,42.9,-106.47,"(-106.47,42.9)",TRUE,KCPR,0, Casper,WY,-25200,07:00:00,06:59:59
KCUT,43.73,-103.62,"(-103.62,43.73)",TRUE,KCUT,0, Custer,SD,-25200,07:00:00,06:59:59
KBOI,43.57,-116.23,"(-116.23,43.57)",TRUE,KBOI,0, Boise,ID,-25200,07:00:00,06:59:59
KCDC,37.7,-113.1,"(-113.1,37.7)",TRUE,KCDC,0, Cedar City,UT,-25200,07:00:00,06:59:59
KAPA,39.57,-104.85,"(-104.85,39.57)",TRUE,KAPA,0, Englewood,CO,-25200,07:00:00,06:59:59
KDEN,39.85,-104.65,"(-104.65,39.85)",TRUE,KDEN,0, Denver,CO,-25200,07:00:00,06:59:59
KGGW,48.22,-106.62,"(-106.62,48.22)",TRUE,KGGW,0, Glasgow,MT,-25200,07:00:00,06:59:59
KGJT,39.12,-108.52,"(-108.52,39.12)",TRUE,KGJT,0, Grand Junction,CO,-25200,07:00:00,06:59:59
KGTF,47.47,-111.38,"(-111.38,47.47)",TRUE,KGTF,0, Great Falls,MT,-25200,07:00:00,06:59:59
KIDA,43.52,-112.07,"(-112.07,43.52)",TRUE,KIDA,0, Idaho Falls,ID,-25200,07:00:00,06:59:59
KMLS,46.43,-105.88,"(-105.88,46.43)",TRUE,KMLS,0, Miles City,MT,-25200,07:00:00,06:59:59
KMSO,46.92,-114.1,"(-114.1,46.92)",TRUE,KMSO,0, Missoula,MT,-25200,07:00:00,06:59:59
KMTJ,38.5,-107.9,"(-107.9,38.5)",TRUE,KMTJ,0, Montrose,CO,-25200,07:00:00,06:59:59
KCOS,38.82,-104.68,"(-104.68,38.82)",TRUE,KCOS,0, Colorado Springs,CO,-25200,07:00:00,06:59:59
KPHX,33.43,-112.02,"(-112.02,33.43)",TRUE,KPHX,0, Phoenix,AZ,-25200,07:00:00,06:59:59
KPRC,34.65,-112.42,"(-112.42,34.65)",TRUE,KPRC,0, Prescott,AZ,-25200,07:00:00,06:59:59
KGLD,39.37,-101.7,"(-101.7,39.37)",TRUE,KGLD,0, Goodland,KS,-25200,07:00:00,06:59:59
KRIW,43.07,-108.47,"(-108.47,43.07)",TRUE,KRIW,0, Riverton,WY,-25200,07:00:00,06:59:59
KROW,33.3,-104.5,"(-104.5,33.3)",TRUE,KROW,0, Roswell,NM,-25200,07:00:00,06:59:59
KSNT,44.17,-114.93,"(-114.93,44.17)",TRUE,KSNT,0, Lowman,ID,-25200,07:00:00,06:59:59
KSLC,40.77,-111.97,"(-111.97,40.77)",TRUE,KSLC,0, Salt Lake City,UT,-25200,07:00:00,06:59:59
KSNY,41.1,-102.98,"(-102.98,41.1)",TRUE,KSNY,0, Sidney,NE,-25200,07:00:00,06:59:59
KTUS,32.13,-110.95,"(-110.95,32.13)",TRUE,KTUS,0, Tucson,AZ,-25200,07:00:00,06:59:59
KP60,44.55,-110.42,"(-110.42,44.55)",TRUE,KP60,0, Yellowstone National Park,WY,-25200,07:00:00,06:59:59
KCNY,38.77,-109.75,"(-109.75,38.77)",TRUE,KCNY,0,Moab,UT,-25200,07:00:00,06:59:59
KABR,45.45,-98.42,"(-98.42,45.45)",TRUE,KABR,0, Aberdeen,SD,-21600,06:00:00,05:59:59
KDFW,32.9,-97.02,"(-97.02,32.9)",TRUE,KDFW,0, DFW Airport,TX,-21600,06:00:00,05:59:59
KDBQ,42.4,-90.7,"(-90.7,42.4)",TRUE,KDBQ,0, Dubuque,IA,-21600,06:00:00,05:59:59
KTCL,33.22,-87.62,"(-87.62,33.22)",TRUE,KTCL,0, Tuscaloosa,AL,-21600,06:00:00,05:59:59
KLWV,38.77,-87.6,"(-87.6,38.77)",TRUE,KLWV,0, Lawrenceville,IL,-21600,06:00:00,05:59:59
KPIA,40.67,-89.68,"(-89.68,40.67)",TRUE,KPIA,0, Peoria,IL,-21600,06:00:00,05:59:59
KPAH,37.07,-88.77,"(-88.77,37.07)",TRUE,KPAH,0, West Paducah,KY,-21600,06:00:00,05:59:59
KDEQ,34.05,-94.4,"(-94.4,34.05)",TRUE,KDEQ,0, De Queen,AR,-21600,06:00:00,05:59:59
KJLN,37.15,-94.5,"(-94.5,37.15)",TRUE,KJLN,0, Webb City,MO,-21600,06:00:00,05:59:59
KTOP,39.07,-95.63,"(-95.63,39.07)",TRUE,KTOP,0, Topeka,KS,-21600,06:00:00,05:59:59
KCMI,40.03,-88.27,"(-88.27,40.03)",TRUE,KCMI,0, Tolono,IL,-21600,06:00:00,05:59:59
KMTO,39.47,-88.27,"(-88.27,39.47)",TRUE,KMTO,0, Charleston,IL,-21600,06:00:00,05:59:59
KSUX,42.38,-96.38,"(-96.38,42.38)",TRUE,KSUX,0, Sergeant Bluff,IA,-21600,06:00:00,05:59:59
KMBG,45.55,-100.42,"(-100.42,45.55)",TRUE,KMBG,0, Mobridge,SD,-21600,06:00:00,05:59:59
KGLS,29.27,-94.87,"(-94.87,29.27)",TRUE,KGLS,0, Galveston,TX,-21600,06:00:00,05:59:59
KSTC,45.55,-94.05,"(-94.05,45.55)",TRUE,KSTC,0, Saint Cloud,MN,-21600,06:00:00,05:59:59
KGRB,44.48,-88.13,"(-88.13,44.48)",TRUE,KGRB,0, Green Bay,WI,-21600,06:00:00,05:59:59
KUIN,39.95,-91.2,"(-91.2,39.95)",TRUE,KUIN,0, Quincy,IL,-21600,06:00:00,05:59:59
KTYR,32.37,-95.4,"(-95.4,32.37)",TRUE,KTYR,0, Tyler,TX,-21600,06:00:00,05:59:59
KOJC,38.85,-94.73,"(-94.73,38.85)",TRUE,KOJC,0, Overland Park,KS,-21600,06:00:00,05:59:59
KSPI,39.85,-89.68,"(-89.68,39.85)",TRUE,KSPI,0, Springfield,IL,-21600,06:00:00,05:59:59
KCNK,39.55,-97.65,"(-97.65,39.55)",TRUE,KCNK,0, Concordia,KS,-21600,06:00:00,05:59:59
KSGF,37.23,-93.38,"(-93.38,37.23)",TRUE,KSGF,0, Springfield,MO,-21600,06:00:00,05:59:59
KDEC,39.83,-88.85,"(-88.85,39.83)",TRUE,KDEC,0, Decatur,IL,-21600,06:00:00,05:59:59
KDPA,41.92,-88.25,"(-88.25,41.92)",TRUE,KDPA,0, West Chicago,IL,-21600,06:00:00,05:59:59
KPWK,42.12,-87.9,"(-87.9,42.12)",TRUE,KPWK,0, Wheeling,IL,-21600,06:00:00,05:59:59
KCGI,37.23,-89.58,"(-89.58,37.23)",TRUE,KCGI,0, Scott City,MO,-21600,06:00:00,05:59:59
KSJT,31.37,-100.5,"(-100.5,31.37)",TRUE,KSJT,0, San Angelo,TX,-21600,06:00:00,05:59:59
KMSN,43.13,-89.35,"(-89.35,43.13)",TRUE,KMSN,0, Madison,WI,-21600,06:00:00,05:59:59
KMEM,35.07,-89.98,"(-89.98,35.07)",TRUE,KMEM,0, Memphis,TN,-21600,06:00:00,05:59:59
KAEX,31.33,-92.57,"(-92.57,31.33)",TRUE,KAEX,0, Boyce,LA,-21600,06:00:00,05:59:59
KIRK,40.1,-92.55,"(-92.55,40.1)",TRUE,KIRK,0, Kirksville,MO,-21600,06:00:00,05:59:59
KISN,48.17,-103.63,"(-103.63,48.17)",TRUE,KISN,0, Williston,ND,-21600,06:00:00,05:59:59
KMIW,42.12,-92.92,"(-92.92,42.12)",TRUE,KMIW,0, Marshalltown,IA,-21600,06:00:00,05:59:59
KAUW,44.93,-89.62,"(-89.62,44.93)",TRUE,KAUW,0, Wausau,WI,-21600,06:00:00,05:59:59
KTXK,33.45,-93.98,"(-93.98,33.45)",TRUE,KTXK,0, Texarkana,AR,-21600,06:00:00,05:59:59
KMFE,26.18,-98.25,"(-98.25,26.18)",TRUE,KMFE,0, McAllen,TX,-21600,06:00:00,05:59:59
KHRO,36.27,-93.15,"(-93.15,36.27)",TRUE,KHRO,0, Harrison,AR,-21600,06:00:00,05:59:59
KINL,48.57,-93.4,"(-93.4,48.57)",TRUE,KINL,0, International Falls,MN,-21600,06:00:00,05:59:59
KBRO,25.92,-97.42,"(-97.42,25.92)",TRUE,KBRO,0, Brownsville,TX,-21600,06:00:00,05:59:59
KACT,31.62,-97.23,"(-97.23,31.62)",TRUE,KACT,0, Waco,TX,-21600,06:00:00,05:59:59
KSLN,38.78,-97.65,"(-97.65,38.78)",TRUE,KSLN,0, Salina,KS,-21600,06:00:00,05:59:59
KRHI,45.63,-89.48,"(-89.48,45.63)",TRUE,KRHI,0, Rhinelander,WI,-21600,06:00:00,05:59:59
KCID,41.88,-91.72,"(-91.72,41.88)",TRUE,KCID,0, Swisher,IA,-21600,06:00:00,05:59:59
KANB,33.58,-85.85,"(-85.85,33.58)",TRUE,KANB,0, Munford,AL,-21600,06:00:00,05:59:59
KDVN,41.62,-90.58,"(-90.58,41.62)",TRUE,KDVN,0, Eldridge,IA,-21600,06:00:00,05:59:59
KHSI,40.6,-98.43,"(-98.43,40.6)",TRUE,KHSI,0, Hastings,NE,-21600,06:00:00,05:59:59
KMHE,43.77,-98.02,"(-98.02,43.77)",TRUE,KMHE,0, Mitchell,SD,-21600,06:00:00,05:59:59
KLIT,34.73,-92.23,"(-92.23,34.73)",TRUE,KLIT,0, Little Rock,AR,-21600,06:00:00,05:59:59
KJBR,35.83,-90.65,"(-90.65,35.83)",TRUE,KJBR,0, Jonesboro,AR,-21600,06:00:00,05:59:59
KPNS,30.48,-87.18,"(-87.18,30.48)",TRUE,KPNS,0, Pensacola,FL,-21600,06:00:00,05:59:59
KMSL,34.75,-87.6,"(-87.6,34.75)",TRUE,KMSL,0, Muscle Shoals,AL,-21600,06:00:00,05:59:59
KATT,30.32,-97.77,"(-97.77,30.32)",TRUE,KATT,0, Austin,TX,-21600,06:00:00,05:59:59
KCSV,35.95,-85.08,"(-85.08,35.95)",TRUE,KCSV,0, Crossville,TN,-21600,06:00:00,05:59:59
KIOW,41.63,-91.55,"(-91.55,41.63)",TRUE,KIOW,0, Iowa City,IA,-21600,06:00:00,05:59:59
KEST,43.4,-94.75,"(-94.75,43.4)",TRUE,KEST,0, Estherville,IA,-21600,06:00:00,05:59:59
KOFK,41.98,-97.43,"(-97.43,41.98)",TRUE,KOFK,0, Norfolk,NE,-21600,06:00:00,05:59:59
KEAU,44.87,-91.47,"(-91.47,44.87)",TRUE,KEAU,0, Eau Claire,WI,-21600,06:00:00,05:59:59
KARR,41.77,-88.48,"(-88.48,41.77)",TRUE,KARR,0, Sugar Grove,IL,-21600,06:00:00,05:59:59
KUNO,36.88,-91.9,"(-91.9,36.88)",TRUE,KUNO,0, Pomona,MO,-21600,06:00:00,05:59:59
KMGM,32.3,-86.4,"(-86.4,32.3)",TRUE,KMGM,0, Hope Hull,AL,-21600,06:00:00,05:59:59
KLFT,30.2,-92,"(-92,30.2)",TRUE,KLFT,0, Lafayette,LA,-21600,06:00:00,05:59:59
KLSE,43.88,-91.25,"(-91.25,43.88)",TRUE,KLSE,0, La Crosse,WI,-21600,06:00:00,05:59:59
KHBG,31.27,-89.25,"(-89.25,31.27)",TRUE,KHBG,0, Hattiesburg,MS,-21600,06:00:00,05:59:59
KLBF,41.12,-100.67,"(-100.67,41.12)",TRUE,KLBF,0, North Platte,NE,-21600,06:00:00,05:59:59
KLCH,30.13,-93.22,"(-93.22,30.13)",TRUE,KLCH,0, Lake Charles,LA,-21600,06:00:00,05:59:59
KFYV,36.02,-94.17,"(-94.17,36.02)",TRUE,KFYV,0, Fayetteville,AR,-21600,06:00:00,05:59:59
KAMW,41.98,-93.62,"(-93.62,41.98)",TRUE,KAMW,0, Ames,IA,-21600,06:00:00,05:59:59
KBRL,40.77,-91.13,"(-91.13,40.77)",TRUE,KBRL,0, Burlington,IA,-21600,06:00:00,05:59:59
KTUP,34.27,-88.77,"(-88.77,34.27)",TRUE,KTUP,0, Tupelo,MS,-21600,06:00:00,05:59:59
KVCT,28.87,-96.93,"(-96.93,28.87)",TRUE,KVCT,0, Victoria,TX,-21600,06:00:00,05:59:59
KMEI,32.33,-88.75,"(-88.75,32.33)",TRUE,KMEI,0, Meridian,MS,-21600,06:00:00,05:59:59
KEAR,40.72,-99,"(-99,40.72)",TRUE,KEAR,0, Kearney,NE,-21600,06:00:00,05:59:59
KDHN,31.32,-85.45,"(-85.45,31.32)",TRUE,KDHN,0, Dothan,AL,-21600,06:00:00,05:59:59
KMLI,41.45,-90.52,"(-90.52,41.45)",TRUE,KMLI,0, Milan,IL,-21600,06:00:00,05:59:59
KHON,44.38,-98.23,"(-98.23,44.38)",TRUE,KHON,0, Huron,SD,-21600,06:00:00,05:59:59
KEVV,38.05,-87.52,"(-87.52,38.05)",TRUE,KEVV,0, Evansville,IN,-21600,06:00:00,05:59:59
KHSV,34.65,-86.78,"(-86.78,34.65)",TRUE,KHSV,0, Huntsville,AL,-21600,06:00:00,05:59:59
KRST,43.9,-92.5,"(-92.5,43.9)",TRUE,KRST,0, Stewartville,MN,-21600,06:00:00,05:59:59
KMOB,30.68,-88.25,"(-88.25,30.68)",TRUE,KMOB,0, Mobile,AL,-21600,06:00:00,05:59:59
KBWG,36.97,-86.42,"(-86.42,36.97)",TRUE,KBWG,0, Bowling Green,KY,-21600,06:00:00,05:59:59
KAMA,35.22,-101.72,"(-101.72,35.22)",TRUE,KAMA,0, Amarillo,TX,-21600,06:00:00,05:59:59
KLBB,33.67,-101.82,"(-101.82,33.67)",TRUE,KLBB,0, Lubbock,TX,-21600,06:00:00,05:59:59
KBGD,35.7,-101.4,"(-101.4,35.7)",TRUE,KBGD,0, Borger,TX,-21600,06:00:00,05:59:59
KLFK,31.23,-94.75,"(-94.75,31.23)",TRUE,KLFK,0, Burke,TX,-21600,06:00:00,05:59:59
KEMP,38.33,-96.2,"(-96.2,38.33)",TRUE,KEMP,0, Emporia,KS,-21600,06:00:00,05:59:59
KHOU,29.63,-95.28,"(-95.28,29.63)",TRUE,KHOU,0, Houston,TX,-21600,06:00:00,05:59:59
KMCW,43.15,-93.33,"(-93.33,43.15)",TRUE,KMCW,0, Clear Lake,IA,-21600,06:00:00,05:59:59
KATY,44.9,-97.15,"(-97.15,44.9)",TRUE,KATY,0, Watertown,SD,-21600,06:00:00,05:59:59
KPIR,44.38,-100.28,"(-100.28,44.38)",TRUE,KPIR,0, Pierre,SD,-21600,06:00:00,05:59:59
KGRI,40.97,-98.32,"(-98.32,40.97)",TRUE,KGRI,0, Grand Island,NE,-21600,06:00:00,05:59:59
KMAF,31.95,-102.2,"(-102.2,31.95)",TRUE,KMAF,0, Midland,TX,-21600,06:00:00,05:59:59
KGUY,36.68,-101.5,"(-101.5,36.68)",TRUE,KGUY,0, Guymon,OK,-21600,06:00:00,05:59:59
KTOI,31.85,-86.02,"(-86.02,31.85)",TRUE,KTOI,0, Troy,AL,-21600,06:00:00,05:59:59
KCDS,34.43,-100.28,"(-100.28,34.43)",TRUE,KCDS,0, Childress,TX,-21600,06:00:00,05:59:59
KGLH,33.5,-90.98,"(-90.98,33.5)",TRUE,KGLH,0, Greenville,MS,-21600,06:00:00,05:59:59
KLOT,41.6,-88.1,"(-88.1,41.6)",TRUE,KLOT,0, Romeoville,IL,-21600,06:00:00,05:59:59
KMKL,35.6,-88.92,"(-88.92,35.6)",TRUE,KMKL,0, Jackson,TN,-21600,06:00:00,05:59:59
KICR,43.38,-99.85,"(-99.85,43.38)",TRUE,KICR,0, Winner,SD,-21600,06:00:00,05:59:59
K8D3,45.67,-96.98,"(-96.98,45.67)",TRUE,K8D3,0, Sisseton,SD,-21600,06:00:00,05:59:59
KEET,33.18,-86.78,"(-86.78,33.18)",TRUE,KEET,0, Calera,AL,-21600,06:00:00,05:59:59
KP28,37.28,-98.55,"(-98.55,37.28)",TRUE,KP28,0, Medicine Lodge,KS,-21600,06:00:00,05:59:59
KMCI,39.3,-94.73,"(-94.73,39.3)",TRUE,KMCI,0, Kansas City,MO,-21600,06:00:00,05:59:59
KLWD,40.63,-93.9,"(-93.9,40.63)",TRUE,KLWD,0, Lamoni,IA,-21600,06:00:00,05:59:59
KLWC,39.02,-95.22,"(-95.22,39.02)",TRUE,KLWC,0, Lawrence,KS,-21600,06:00:00,05:59:59
KOMA,41.32,-95.9,"(-95.9,41.32)",TRUE,KOMA,0, Omaha,NE,-21600,06:00:00,05:59:59
KNEW,30.05,-90.03,"(-90.03,30.05)",TRUE,KNEW,0, New Orleans,LA,-21600,06:00:00,05:59:59
KOTM,41.1,-92.45,"(-92.45,41.1)",TRUE,KOTM,0, Ottumwa,IA,-21600,06:00:00,05:59:59
KCRP,27.77,-97.5,"(-97.5,27.77)",TRUE,KCRP,0, Corpus Christi,TX,-21600,06:00:00,05:59:59
KHLC,39.37,-99.83,"(-99.83,39.37)",TRUE,KHLC,0, Hill City,KS,-21600,06:00:00,05:59:59
KFSD,43.58,-96.75,"(-96.75,43.58)",TRUE,KFSD,0, Sioux Falls,SD,-21600,06:00:00,05:59:59
KDMO,38.72,-93.17,"(-93.17,38.72)",TRUE,KDMO,0, Sedalia,MO,-21600,06:00:00,05:59:59
KFSM,35.33,-94.37,"(-94.37,35.33)",TRUE,KFSM,0, Fort Smith,AR,-21600,06:00:00,05:59:59
KELD,33.22,-92.82,"(-92.82,33.22)",TRUE,KELD,0, El Dorado,AR,-21600,06:00:00,05:59:59
KCNU,37.67,-95.48,"(-95.48,37.67)",TRUE,KCNU,0, Chanute,KS,-21600,06:00:00,05:59:59
KMCK,40.2,-100.58,"(-100.58,40.2)",TRUE,KMCK,0, McCook,NE,-21600,06:00:00,05:59:59
KBBW,41.43,-99.63,"(-99.63,41.43)",TRUE,KBBW,0, Broken Bow,NE,-21600,06:00:00,05:59:59
KORD,41.98,-87.93,"(-87.93,41.98)",TRUE,KORD,0, Chicago,IL,-21600,06:00:00,05:59:59
KSTJ,39.77,-94.92,"(-94.92,39.77)",TRUE,KSTJ,0, Saint Joseph,MO,-21600,06:00:00,05:59:59
KTVR,32.35,-91.03,"(-91.03,32.35)",TRUE,KTVR,0, Tallulah,LA,-21600,06:00:00,05:59:59
KHRL,26.23,-97.65,"(-97.65,26.23)",TRUE,KHRL,0, Harlingen,TX,-21600,06:00:00,05:59:59
KMKE,42.95,-87.9,"(-87.9,42.95)",TRUE,KMKE,0, Milwaukee,WI,-21600,06:00:00,05:59:59
KMSP,44.88,-93.23,"(-93.23,44.88)",TRUE,KMSP,0, Saint Paul,MN,-21600,06:00:00,05:59:59
KABI,32.42,-99.68,"(-99.68,32.42)",TRUE,KABI,0, Abilene,TX,-21600,06:00:00,05:59:59
KARA,30.03,-91.88,"(-91.88,30.03)",TRUE,KARA,0, New Iberia,LA,-21600,06:00:00,05:59:59
KAUS,30.18,-97.68,"(-97.68,30.18)",TRUE,KAUS,0, Austin,TX,-21600,06:00:00,05:59:59
KBTR,30.53,-91.15,"(-91.15,30.53)",TRUE,KBTR,0, Baton Rouge,LA,-21600,06:00:00,05:59:59
KBHM,33.57,-86.75,"(-86.75,33.57)",TRUE,KBHM,0, Birmingham,AL,-21600,06:00:00,05:59:59
KBIS,46.77,-100.75,"(-100.75,46.77)",TRUE,KBIS,0, Bismarck,ND,-21600,06:00:00,05:59:59
KMDW,41.78,-87.75,"(-87.75,41.78)",TRUE,KMDW,0, Chicago,IL,-21600,06:00:00,05:59:59
KRFD,42.2,-89.1,"(-89.1,42.2)",TRUE,KRFD,0, Rockford,IL,-21600,06:00:00,05:59:59
KCOU,38.82,-92.22,"(-92.22,38.82)",TRUE,KCOU,0, Columbia,MO,-21600,06:00:00,05:59:59
KDHT,36.02,-102.55,"(-102.55,36.02)",TRUE,KDHT,0, Dalhart,TX,-21600,06:00:00,05:59:59
KDRT,29.37,-100.92,"(-100.92,29.37)",TRUE,KDRT,0, Del Rio,TX,-21600,06:00:00,05:59:59
KDSM,41.53,-93.67,"(-93.67,41.53)",TRUE,KDSM,0, Des Moines,IA,-21600,06:00:00,05:59:59
KDLH,46.85,-92.2,"(-92.2,46.85)",TRUE,KDLH,0, Duluth,MN,-21600,06:00:00,05:59:59
KGGG,32.38,-94.72,"(-94.72,32.38)",TRUE,KGGG,0, Longview,TX,-21600,06:00:00,05:59:59
KGCK,37.92,-100.72,"(-100.72,37.92)",TRUE,KGCK,0, Garden City,KS,-21600,06:00:00,05:59:59
KGFK,47.95,-97.18,"(-97.18,47.95)",TRUE,KGFK,0, Grand Forks,ND,-21600,06:00:00,05:59:59
KGWO,33.5,-90.08,"(-90.08,33.5)",TRUE,KGWO,0, Greenwood,MS,-21600,06:00:00,05:59:59
KPBF,34.18,-91.93,"(-91.93,34.18)",TRUE,KPBF,0, Pine Bluff,AR,-21600,06:00:00,05:59:59
KFAR,46.93,-96.82,"(-96.82,46.93)",TRUE,KFAR,0, Fargo,ND,-21600,06:00:00,05:59:59
KBPT,29.95,-94.03,"(-94.03,29.95)",TRUE,KBPT,0, Beaumont,TX,-21600,06:00:00,05:59:59
KJAN,32.32,-90.08,"(-90.08,32.32)",TRUE,KJAN,0, Jackson,MS,-21600,06:00:00,05:59:59
KJMS,46.93,-98.67,"(-98.67,46.93)",TRUE,KJMS,0, Jamestown,ND,-21600,06:00:00,05:59:59
KLNK,40.85,-96.77,"(-96.77,40.85)",TRUE,KLNK,0, Lincoln,NE,-21600,06:00:00,05:59:59
KMHK,39.13,-96.68,"(-96.68,39.13)",TRUE,KMHK,0, Manhattan,KS,-21600,06:00:00,05:59:59
KMOT,48.25,-101.27,"(-101.27,48.25)",TRUE,KMOT,0, Minot,ND,-21600,06:00:00,05:59:59
KMLU,32.52,-92.03,"(-92.03,32.52)",TRUE,KMLU,0, Monroe,LA,-21600,06:00:00,05:59:59
KBNA,36.12,-86.68,"(-86.68,36.12)",TRUE,KBNA,0, Nashville,TN,-21600,06:00:00,05:59:59
KVPZ,41.45,-87,"(-87,41.45)",TRUE,KVPZ,0, Valparaiso,IN,-21600,06:00:00,05:59:59
KVIH,38.13,-91.77,"(-91.77,38.13)",TRUE,KVIH,0, Vichy,MO,-21600,06:00:00,05:59:59
KSAT,29.53,-98.47,"(-98.47,29.53)",TRUE,KSAT,0, San Antonio,TX,-21600,06:00:00,05:59:59
KSHV,32.45,-93.83,"(-93.83,32.45)",TRUE,KSHV,0, Shreveport,LA,-21600,06:00:00,05:59:59
KSTL,38.75,-90.37,"(-90.37,38.75)",TRUE,KSTL,0, Saint Louis,MO,-21600,06:00:00,05:59:59
KCLL,30.58,-96.37,"(-96.37,30.58)",TRUE,KCLL,0, College Station,TX,-21600,06:00:00,05:59:59
KTUL,36.2,-95.88,"(-95.88,36.2)",TRUE,KTUL,0, Tulsa,OK,-21600,06:00:00,05:59:59
KALO,42.55,-92.4,"(-92.4,42.55)",TRUE,KALO,0, Waterloo,IA,-21600,06:00:00,05:59:59
KUGN,42.42,-87.87,"(-87.87,42.42)",TRUE,KUGN,0, Waukegan,IL,-21600,06:00:00,05:59:59
KSPS,33.98,-98.5,"(-98.5,33.98)",TRUE,KSPS,0, Wichita Falls,TX,-21600,06:00:00,05:59:59
KOKC,35.38,-97.6,"(-97.6,35.38)",TRUE,KOKC,0, Oklahoma City,OK,-21600,06:00:00,05:59:59
KODX,41.62,-98.95,"(-98.95,41.62)",TRUE,KODX,0,Ord,NE,-21600,06:00:00,05:59:59
KTRI,36.48,-82.4,"(-82.4,36.48)",TRUE,KTRI,0, Blountville,TN,-18000,05:00:00,04:59:59
KAVP,41.33,-75.72,"(-75.72,41.33)",TRUE,KAVP,0, Pittston,PA,-18000,05:00:00,04:59:59
KPVD,41.72,-71.43,"(-71.43,41.72)",TRUE,KPVD,0, Warwick,RI,-18000,05:00:00,04:59:59
KIPT,41.25,-76.92,"(-76.92,41.25)",TRUE,KIPT,0, Montoursville,PA,-18000,05:00:00,04:59:59
KRIC,37.52,-77.32,"(-77.32,37.52)",TRUE,KRIC,0, Sandston,VA,-18000,05:00:00,04:59:59
KYNG,41.25,-80.67,"(-80.67,41.25)",TRUE,KYNG,0, Vienna,OH,-18000,05:00:00,04:59:59
KGVL,34.27,-83.83,"(-83.83,34.27)",TRUE,KGVL,0, Gainesville,GA,-18000,05:00:00,04:59:59
KAUG,44.32,-69.8,"(-69.8,44.32)",TRUE,KAUG,0, Augusta,ME,-18000,05:00:00,04:59:59
KLOZ,37.08,-84.07,"(-84.07,37.08)",TRUE,KLOZ,0, London,KY,-18000,05:00:00,04:59:59
KILG,39.67,-75.6,"(-75.6,39.67)",TRUE,KILG,0, New Castle,DE,-18000,05:00:00,04:59:59
KVPC,34.13,-84.85,"(-84.85,34.13)",TRUE,KVPC,0, Cartersville,GA,-18000,05:00:00,04:59:59
KEWN,35.07,-77.05,"(-77.05,35.07)",TRUE,KEWN,0, New Bern,NC,-18000,05:00:00,04:59:59
KVSF,43.35,-72.52,"(-72.52,43.35)",TRUE,KVSF,0, Perkinsville,VT,-18000,05:00:00,04:59:59
KMTH,24.73,-81.05,"(-81.05,24.73)",TRUE,KMTH,0, Marathon,FL,-18000,05:00:00,04:59:59
KBIV,42.75,-86.1,"(-86.1,42.75)",TRUE,KBIV,0, Holland,MI,-18000,05:00:00,04:59:59
KALB,42.75,-73.8,"(-73.8,42.75)",TRUE,KALB,0, Latham,NY,-18000,05:00:00,04:59:59
KHTS,38.37,-82.55,"(-82.55,38.37)",TRUE,KHTS,0, Huntington,WV,-18000,05:00:00,04:59:59
KCON,43.2,-71.5,"(-71.5,43.2)",TRUE,KCON,0, Concord,NH,-18000,05:00:00,04:59:59
KAGS,33.37,-81.97,"(-81.97,33.37)",TRUE,KAGS,0, Augusta,GA,-18000,05:00:00,04:59:59
KAPN,45.07,-83.57,"(-83.57,45.07)",TRUE,KAPN,0, Alpena,MI,-18000,05:00:00,04:59:59
KCUB,33.97,-81,"(-81,33.97)",TRUE,KCUB,0, Columbia,SC,-18000,05:00:00,04:59:59
KOGB,33.47,-80.85,"(-80.85,33.47)",TRUE,KOGB,0, Orangeburg,SC,-18000,05:00:00,04:59:59
KFLO,34.18,-79.73,"(-79.73,34.18)",TRUE,KFLO,0, Florence,SC,-18000,05:00:00,04:59:59
KPHD,40.47,-81.42,"(-81.42,40.47)",TRUE,KPHD,0, New Philadelphia,OH,-18000,05:00:00,04:59:59
KHGR,39.7,-77.73,"(-77.73,39.7)",TRUE,KHGR,0, Hagerstown,MD,-18000,05:00:00,04:59:59
KHUL,46.12,-67.8,"(-67.8,46.12)",TRUE,KHUL,0, Houlton,ME,-18000,05:00:00,04:59:59
KSSI,31.15,-81.38,"(-81.38,31.15)",TRUE,KSSI,0, Saint Simons Island,GA,-18000,05:00:00,04:59:59
KILM,34.27,-77.9,"(-77.9,34.27)",TRUE,KILM,0, Wilmington,NC,-18000,05:00:00,04:59:59
KMCN,32.68,-83.65,"(-83.65,32.68)",TRUE,KMCN,0, Macon,GA,-18000,05:00:00,04:59:59
KART,43.98,-76.03,"(-76.03,43.98)",TRUE,KART,0, Dexter,NY,-18000,05:00:00,04:59:59
KGED,38.68,-75.37,"(-75.37,38.68)",TRUE,KGED,0, Georgetown,DE,-18000,05:00:00,04:59:59
KPKB,39.35,-81.42,"(-81.42,39.35)",TRUE,KPKB,0, Williamstown,WV,-18000,05:00:00,04:59:59
KDAN,36.57,-79.33,"(-79.33,36.57)",TRUE,KDAN,0, Danville,VA,-18000,05:00:00,04:59:59
KRDG,40.37,-75.97,"(-75.97,40.37)",TRUE,KRDG,0, Reading,PA,-18000,05:00:00,04:59:59
KLOU,38.22,-85.67,"(-85.67,38.22)",TRUE,KLOU,0, Louisville,KY,-18000,05:00:00,04:59:59
KCHS,32.9,-80.03,"(-80.03,32.9)",TRUE,KCHS,0, North Charleston,SC,-18000,05:00:00,04:59:59
KMLT,45.65,-68.7,"(-68.7,45.65)",TRUE,KMLT,0, Millinocket,ME,-18000,05:00:00,04:59:59
KPWM,43.65,-70.3,"(-70.3,43.65)",TRUE,KPWM,0, Portland,ME,-18000,05:00:00,04:59:59
KDNL,33.47,-82.03,"(-82.03,33.47)",TRUE,KDNL,0, Augusta,GA,-18000,05:00:00,04:59:59
KBWI,39.17,-76.68,"(-76.68,39.17)",TRUE,KBWI,0, Baltimore,MD,-18000,05:00:00,04:59:59
KTYS,35.82,-83.98,"(-83.98,35.82)",TRUE,KTYS,0, Alcoa,TN,-18000,05:00:00,04:59:59
KVLD,30.78,-83.27,"(-83.27,30.78)",TRUE,KVLD,0, Valdosta,GA,-18000,05:00:00,04:59:59
KCSG,32.52,-84.95,"(-84.95,32.52)",TRUE,KCSG,0, Columbus,GA,-18000,05:00:00,04:59:59
KMSS,44.93,-74.85,"(-74.85,44.93)",TRUE,KMSS,0, Massena,NY,-18000,05:00:00,04:59:59
KSYR,43.12,-76.1,"(-76.1,43.12)",TRUE,KSYR,0, Syracuse,NY,-18000,05:00:00,04:59:59
K1V4,44.42,-72.02,"(-72.02,44.42)",TRUE,K1V4,0, Saint Johnsbury,VT,-18000,05:00:00,04:59:59
KECG,36.27,-76.18,"(-76.18,36.27)",TRUE,KECG,0, Elizabeth City,NC,-18000,05:00:00,04:59:59
KCRE,33.82,-78.72,"(-78.72,33.82)",TRUE,KCRE,0, Longs,SC,-18000,05:00:00,04:59:59
KFWA,40.98,-85.18,"(-85.18,40.98)",TRUE,KFWA,0, Fort Wayne,IN,-18000,05:00:00,04:59:59
KSBY,38.33,-75.5,"(-75.5,38.33)",TRUE,KSBY,0, Salisbury,MD,-18000,05:00:00,04:59:59
KTLH,30.4,-84.35,"(-84.35,30.4)",TRUE,KTLH,0, Tallahassee,FL,-18000,05:00:00,04:59:59
KBTL,42.32,-85.23,"(-85.23,42.32)",TRUE,KBTL,0, Springfield,MI,-18000,05:00:00,04:59:59
KTOL,41.58,-83.8,"(-83.8,41.58)",TRUE,KTOL,0, Swanton,OH,-18000,05:00:00,04:59:59
KGEZ,39.58,-85.8,"(-85.8,39.58)",TRUE,KGEZ,0, Shelbyville,IN,-18000,05:00:00,04:59:59
KCAE,33.93,-81.12,"(-81.12,33.93)",TRUE,KCAE,0, West Columbia,SC,-18000,05:00:00,04:59:59
KPBI,26.68,-80.1,"(-80.1,26.68)",TRUE,KPBI,0, West Palm Beach,FL,-18000,05:00:00,04:59:59
KEYE,39.83,-86.3,"(-86.3,39.83)",TRUE,KEYE,0, Indianapolis,IN,-18000,05:00:00,04:59:59
KBUF,42.93,-78.73,"(-78.73,42.93)",TRUE,KBUF,0, Buffalo,NY,-18000,05:00:00,04:59:59
KMCO,28.42,-81.33,"(-81.33,28.42)",TRUE,KMCO,0, Orlando,FL,-18000,05:00:00,04:59:59
KDDH,42.9,-73.25,"(-73.25,42.9)",TRUE,KDDH,0, Bennington,VT,-18000,05:00:00,04:59:59
KERI,42.08,-80.18,"(-80.18,42.08)",TRUE,KERI,0, Erie,PA,-18000,05:00:00,04:59:59
KFFT,38.18,-84.9,"(-84.9,38.18)",TRUE,KFFT,0, Frankfort,KY,-18000,05:00:00,04:59:59
KPSF,42.43,-73.28,"(-73.28,42.43)",TRUE,KPSF,0, Pittsfield,MA,-18000,05:00:00,04:59:59
KJST,40.32,-78.83,"(-78.83,40.32)",TRUE,KJST,0, Johnstown,PA,-18000,05:00:00,04:59:59
KBGM,42.22,-75.98,"(-75.98,42.22)",TRUE,KBGM,0, Binghamton,NY,-18000,05:00:00,04:59:59
KSLK,44.4,-74.2,"(-74.2,44.4)",TRUE,KSLK,0, Saranac Lake,NY,-18000,05:00:00,04:59:59
KCLE,41.42,-81.85,"(-81.85,41.42)",TRUE,KCLE,0, Cleveland,OH,-18000,05:00:00,04:59:59
KMDT,40.2,-76.77,"(-76.77,40.2)",TRUE,KMDT,0, Middletown,PA,-18000,05:00:00,04:59:59
KDCA,38.85,-77.03,"(-77.03,38.85)",TRUE,KDCA,0, Washington,DC,-18000,05:00:00,04:59:59
KTVC,44.73,-85.57,"(-85.57,44.73)",TRUE,KTVC,0, Traverse City,MI,-18000,05:00:00,04:59:59
KGFL,43.33,-73.62,"(-73.62,43.33)",TRUE,KGFL,0, Queensbury,NY,-18000,05:00:00,04:59:59
KABY,31.53,-84.2,"(-84.2,31.53)",TRUE,KABY,0, Albany,GA,-18000,05:00:00,04:59:59
KRMG,34.35,-85.17,"(-85.17,34.35)",TRUE,KRMG,0, Rome,GA,-18000,05:00:00,04:59:59
KLWB,37.87,-80.4,"(-80.4,37.87)",TRUE,KLWB,0, Frankford,WV,-18000,05:00:00,04:59:59
KBMG,39.15,-86.62,"(-86.62,39.15)",TRUE,KBMG,0, Bloomington,IN,-18000,05:00:00,04:59:59
KZZV,39.95,-81.9,"(-81.9,39.95)",TRUE,KZZV,0, Zanesville,OH,-18000,05:00:00,04:59:59
KGNV,29.7,-82.28,"(-82.28,29.7)",TRUE,KGNV,0, Gainesville,FL,-18000,05:00:00,04:59:59
KBKW,37.8,-81.12,"(-81.12,37.8)",TRUE,KBKW,0, Beaver,WV,-18000,05:00:00,04:59:59
KMGW,39.65,-79.92,"(-79.92,39.65)",TRUE,KMGW,0, Morgantown,WV,-18000,05:00:00,04:59:59
KNYC,40.78,-73.97,"(-73.97,40.78)",TRUE,KNYC,0, New York,NY,-18000,05:00:00,04:59:59
KMVL,44.53,-72.62,"(-72.62,44.53)",TRUE,KMVL,0, Morristown,VT,-18000,05:00:00,04:59:59
KROC,43.12,-77.68,"(-77.68,43.12)",TRUE,KROC,0, Rochester,NY,-18000,05:00:00,04:59:59
KMKG,43.17,-86.23,"(-86.23,43.17)",TRUE,KMKG,0, Norton Shores,MI,-18000,05:00:00,04:59:59
KHLG,40.17,-80.65,"(-80.65,40.17)",TRUE,KHLG,0, Wheeling,WV,-18000,05:00:00,04:59:59
KPHL,39.87,-75.23,"(-75.23,39.87)",TRUE,KPHL,0, Philadelphia,PA,-18000,05:00:00,04:59:59
KABE,40.65,-75.45,"(-75.45,40.65)",TRUE,KABE,0, Catasauqua,PA,-18000,05:00:00,04:59:59
KMPV,44.2,-72.57,"(-72.57,44.2)",TRUE,KMPV,0, Barre,VT,-18000,05:00:00,04:59:59
KMBS,43.53,-84.08,"(-84.08,43.53)",TRUE,KMBS,0, Freeland,MI,-18000,05:00:00,04:59:59
KRUT,43.52,-72.95,"(-72.95,43.52)",TRUE,KRUT,0, North Clarendon,VT,-18000,05:00:00,04:59:59
KJKL,37.6,-83.32,"(-83.32,37.6)",TRUE,KJKL,0, Jackson,KY,-18000,05:00:00,04:59:59
KCAR,46.87,-68.02,"(-68.02,46.87)",TRUE,KCAR,0, Caribou,ME,-18000,05:00:00,04:59:59
KBDR,41.17,-73.13,"(-73.13,41.17)",TRUE,KBDR,0, Stratford,CT,-18000,05:00:00,04:59:59
KLBT,34.6,-79.07,"(-79.07,34.6)",TRUE,KLBT,0, Lumberton,NC,-18000,05:00:00,04:59:59
KMIE,40.23,-85.4,"(-85.4,40.23)",TRUE,KMIE,0, Muncie,IN,-18000,05:00:00,04:59:59
KEYW,24.55,-81.75,"(-81.75,24.55)",TRUE,KEYW,0, Key West,FL,-18000,05:00:00,04:59:59
KFVE,47.28,-68.3,"(-68.3,47.28)",TRUE,KFVE,0, Frenchville,ME,-18000,05:00:00,04:59:59
KCRW,38.38,-81.58,"(-81.58,38.38)",TRUE,KCRW,0, Charleston,WV,-18000,05:00:00,04:59:59
KDUJ,41.17,-78.9,"(-78.9,41.17)",TRUE,KDUJ,0, Reynoldsville,PA,-18000,05:00:00,04:59:59
KAVL,35.43,-82.53,"(-82.53,35.43)",TRUE,KAVL,0, Fletcher,NC,-18000,05:00:00,04:59:59
KJXN,42.27,-84.47,"(-84.47,42.27)",TRUE,KJXN,0, Jackson,MI,-18000,05:00:00,04:59:59
KGSP,34.9,-82.22,"(-82.22,34.9)",TRUE,KGSP,0, Greer,SC,-18000,05:00:00,04:59:59
KJFK,40.63,-73.77,"(-73.77,40.63)",TRUE,KJFK,0, Queens,NY,-18000,05:00:00,04:59:59
KLGA,40.78,-73.88,"(-73.88,40.78)",TRUE,KLGA,0, Queens,NY,-18000,05:00:00,04:59:59
KAMG,31.53,-82.5,"(-82.5,31.53)",TRUE,KAMG,0, Alma,GA,-18000,05:00:00,04:59:59
KDAB,29.18,-81.07,"(-81.07,29.18)",TRUE,KDAB,0, Daytona Beach,FL,-18000,05:00:00,04:59:59
KEWR,40.68,-74.17,"(-74.17,40.68)",TRUE,KEWR,0, Elizabeth,NJ,-18000,05:00:00,04:59:59
KRDU,35.9,-78.78,"(-78.78,35.9)",TRUE,KRDU,0, Morrisville,NC,-18000,05:00:00,04:59:59
KHSE,35.23,-75.62,"(-75.62,35.23)",TRUE,KHSE,0, Buxton,NC,-18000,05:00:00,04:59:59
KWAL,37.93,-75.47,"(-75.47,37.93)",TRUE,KWAL,0, Wallops Island,VA,-18000,05:00:00,04:59:59
KHTL,44.35,-84.67,"(-84.67,44.35)",TRUE,KHTL,0, Houghton Lake,MI,-18000,05:00:00,04:59:59
KVRB,27.65,-80.42,"(-80.42,27.65)",TRUE,KVRB,0, Vero Beach,FL,-18000,05:00:00,04:59:59
KDMH,39.28,-76.62,"(-76.62,39.28)",TRUE,KDMH,0, Baltimore,MD,-18000,05:00:00,04:59:59
KBFD,41.8,-78.63,"(-78.63,41.8)",TRUE,KBFD,0, Lewis Run,PA,-18000,05:00:00,04:59:59
KHUF,39.45,-87.3,"(-87.3,39.45)",TRUE,KHUF,0, Terre Haute,IN,-18000,05:00:00,04:59:59
KEKN,38.88,-79.85,"(-79.85,38.88)",TRUE,KEKN,0, Elkins,WV,-18000,05:00:00,04:59:59
KCHO,38.13,-78.45,"(-78.45,38.13)",TRUE,KCHO,0, Earlysville,VA,-18000,05:00:00,04:59:59
KANJ,46.47,-84.37,"(-84.37,46.47)",TRUE,KANJ,0, Sault Ste. Marie,MI,-18000,05:00:00,04:59:59
KLYH,37.32,-79.2,"(-79.2,37.32)",TRUE,KLYH,0, Lynchburg,VA,-18000,05:00:00,04:59:59
KLAF,40.42,-86.93,"(-86.93,40.42)",TRUE,KLAF,0, West Lafayette,IN,-18000,05:00:00,04:59:59
KFAY,34.98,-78.88,"(-78.88,34.98)",TRUE,KFAY,0, Fayetteville,NC,-18000,05:00:00,04:59:59
KAPF,26.15,-81.77,"(-81.77,26.15)",TRUE,KAPF,0, Naples,FL,-18000,05:00:00,04:59:59
KCAK,40.92,-81.45,"(-81.45,40.92)",TRUE,KCAK,0, North Canton,OH,-18000,05:00:00,04:59:59
KAOO,40.3,-78.32,"(-78.32,40.3)",TRUE,KAOO,0, Martinsburg,PA,-18000,05:00:00,04:59:59
KAAF,29.73,-85.03,"(-85.03,29.73)",TRUE,KAAF,0, Apalachicola,FL,-18000,05:00:00,04:59:59
KAHN,33.95,-83.33,"(-83.33,33.95)",TRUE,KAHN,0, Athens,GA,-18000,05:00:00,04:59:59
KACY,39.45,-74.57,"(-74.57,39.45)",TRUE,KACY,0, Egg Harbor City,NJ,-18000,05:00:00,04:59:59
KBGR,44.8,-68.82,"(-68.82,44.8)",TRUE,KBGR,0, Bangor,ME,-18000,05:00:00,04:59:59
KFNT,42.97,-83.75,"(-83.75,42.97)",TRUE,KFNT,0, Flint,MI,-18000,05:00:00,04:59:59
KLEX,38.03,-84.6,"(-84.6,38.03)",TRUE,KLEX,0, Lexington,KY,-18000,05:00:00,04:59:59
KBOS,42.37,-71.02,"(-71.02,42.37)",TRUE,KBOS,0, Boston,MA,-18000,05:00:00,04:59:59
KBDL,41.93,-72.68,"(-72.68,41.93)",TRUE,KBDL,0, Windsor Locks,CT,-18000,05:00:00,04:59:59
KBTV,44.47,-73.15,"(-73.15,44.47)",TRUE,KBTV,0, South Burlington,VT,-18000,05:00:00,04:59:59
KLAN,42.78,-84.58,"(-84.58,42.78)",TRUE,KLAN,0, Lansing,MI,-18000,05:00:00,04:59:59
KCLT,35.22,-80.95,"(-80.95,35.22)",TRUE,KCLT,0, Charlotte,NC,-18000,05:00:00,04:59:59
KCHA,35.03,-85.2,"(-85.2,35.03)",TRUE,KCHA,0, Chattanooga,TN,-18000,05:00:00,04:59:59
KCVG,39.05,-84.67,"(-84.67,39.05)",TRUE,KCVG,0, Burlington,KY,-18000,05:00:00,04:59:59
KDAY,39.9,-84.22,"(-84.22,39.9)",TRUE,KDAY,0, Vandalia,OH,-18000,05:00:00,04:59:59
KPDK,33.88,-84.3,"(-84.3,33.88)",TRUE,KPDK,0, Atlanta,GA,-18000,05:00:00,04:59:59
KDTW,42.23,-83.33,"(-83.33,42.23)",TRUE,KDTW,0, Detroit,MI,-18000,05:00:00,04:59:59
KIAD,38.93,-77.45,"(-77.45,38.93)",TRUE,KIAD,0, Chantilly,VA,-18000,05:00:00,04:59:59
KPOU,41.63,-73.88,"(-73.88,41.63)",TRUE,KPOU,0, Wappingers Falls,NY,-18000,05:00:00,04:59:59
KMRB,39.4,-77.98,"(-77.98,39.4)",TRUE,KMRB,0, Martinsburg,WV,-18000,05:00:00,04:59:59
KFLL,26.07,-80.15,"(-80.15,26.07)",TRUE,KFLL,0, Fort Lauderdale,FL,-18000,05:00:00,04:59:59
KFTY,33.78,-84.52,"(-84.52,33.78)",TRUE,KFTY,0, Atlanta,GA,-18000,05:00:00,04:59:59
KGRR,42.88,-85.52,"(-85.52,42.88)",TRUE,KGRR,0, Grand Rapids,MI,-18000,05:00:00,04:59:59
KATL,33.63,-84.45,"(-84.45,33.63)",TRUE,KATL,0, College Park,GA,-18000,05:00:00,04:59:59
KIND,39.72,-86.3,"(-86.3,39.72)",TRUE,KIND,0, Indianapolis,IN,-18000,05:00:00,04:59:59
KJAX,30.5,-81.68,"(-81.68,30.5)",TRUE,KJAX,0, Jacksonville,FL,-18000,05:00:00,04:59:59
KAZO,42.23,-85.55,"(-85.55,42.23)",TRUE,KAZO,0, Portage,MI,-18000,05:00:00,04:59:59
KISP,40.8,-73.1,"(-73.1,40.8)",TRUE,KISP,0, Ronkonkoma,NY,-18000,05:00:00,04:59:59
KSDF,38.18,-85.73,"(-85.73,38.18)",TRUE,KSDF,0, Louisville,KY,-18000,05:00:00,04:59:59
KMFD,40.82,-82.52,"(-82.52,40.82)",TRUE,KMFD,0, Mansfield,OH,-18000,05:00:00,04:59:59
KMLB,28.1,-80.65,"(-80.65,28.1)",TRUE,KMLB,0, Melbourne,FL,-18000,05:00:00,04:59:59
KBLF,37.3,-81.2,"(-81.2,37.3)",TRUE,KBLF,0, Bluefield,WV,-18000,05:00:00,04:59:59
KMIA,25.8,-80.28,"(-80.28,25.8)",TRUE,KMIA,0, Miami,FL,-18000,05:00:00,04:59:59
KORF,36.9,-76.2,"(-76.2,36.9)",TRUE,KORF,0, Norfolk,VA,-18000,05:00:00,04:59:59
KFFC,33.35,-84.57,"(-84.57,33.35)",TRUE,KFFC,0, Peachtree City,GA,-18000,05:00:00,04:59:59
KGSO,36.1,-79.95,"(-79.95,36.1)",TRUE,KGSO,0, Greensboro,NC,-18000,05:00:00,04:59:59
KPIT,40.5,-80.27,"(-80.27,40.5)",TRUE,KPIT,0, Pittsburgh,PA,-18000,05:00:00,04:59:59
KPBG,44.65,-73.47,"(-73.47,44.65)",TRUE,KPBG,0, Plattsburgh,NY,-18000,05:00:00,04:59:59
KMPO,41.13,-75.38,"(-75.38,41.13)",TRUE,KMPO,0, Mount Pocono,PA,-18000,05:00:00,04:59:59
KCMH,40,-82.88,"(-82.88,40)",TRUE,KCMH,0, Columbus,OH,-18000,05:00:00,04:59:59
KROA,37.32,-79.97,"(-79.97,37.32)",TRUE,KROA,0, Roanoke,VA,-18000,05:00:00,04:59:59
KSAV,32.12,-81.2,"(-81.2,32.12)",TRUE,KSAV,0, Savannah,GA,-18000,05:00:00,04:59:59
KSBN,41.7,-86.32,"(-86.32,41.7)",TRUE,KSBN,0, South Bend,IN,-18000,05:00:00,04:59:59
KTTN,40.28,-74.82,"(-74.82,40.28)",TRUE,KTTN,0, Trenton,NJ,-18000,05:00:00,04:59:59
KORH,42.27,-71.87,"(-71.87,42.27)",TRUE,KORH,0, Worcester,MA,-18000,05:00:00,04:59:59
KBIF,31.85,-106.38,"(-106.38,31.85)",FALSE,KELP,2.073, Fort Bliss,TX,-25200,07:00:00,06:59:59
KHHR,33.92,-118.33,"(-118.33,33.92)",FALSE,KLAX,2.949, Hawthorne,CA,-28800,08:00:00,07:59:59
KNZY,32.7,-117.22,"(-117.22,32.7)",FALSE,KSAN,3.115, San Diego,CA,-28800,08:00:00,07:59:59
KFEW,41.13,-104.87,"(-104.87,41.13)",FALSE,KCYS,3.896, Cheyenne,WY,-25200,07:00:00,06:59:59
KNGU,36.92,-76.27,"(-76.27,36.92)",FALSE,KORF,4.107, Norfolk,VA,-18000,05:00:00,04:59:59
KNFG,33.28,-117.33,"(-117.33,33.28)",FALSE,KOKB,4.304, Oceanside,CA,-28800,08:00:00,07:59:59
KCXY,40.22,-76.85,"(-76.85,40.22)",FALSE,KMDT,4.442, New Cumberland,PA,-18000,05:00:00,04:59:59
KWHP,34.25,-118.42,"(-118.42,34.25)",FALSE,KBUR,4.483, Pacoima,CA,-28800,08:00:00,07:59:59
KMXF,32.37,-86.37,"(-86.37,32.37)",FALSE,KMGM,5.144, Montgomery,AL,-21600,06:00:00,05:59:59
KNQX,24.57,-81.67,"(-81.67,24.57)",FALSE,KEYW,5.214, Key West,FL,-18000,05:00:00,04:59:59
KCNO,33.98,-117.62,"(-117.62,33.98)",FALSE,KONT,5.352, Chino,CA,-28800,08:00:00,07:59:59
KDMA,32.17,-110.87,"(-110.87,32.17)",FALSE,KTUS,5.435, Tucson,AZ,-25200,07:00:00,06:59:59
KSKA,47.62,-117.65,"(-117.65,47.62)",FALSE,KGEG,5.589, Fairchild Air Force Base,WA,-28800,08:00:00,07:59:59
KRCA,44.13,-103.08,"(-103.08,44.13)",FALSE,KRAP,5.724, Box Elder,SD,-25200,07:00:00,06:59:59
KXLL,40.57,-75.48,"(-75.48,40.57)",FALSE,KABE,5.747, Allentown,PA,-18000,05:00:00,04:59:59
KRNT,47.5,-122.22,"(-122.22,47.5)",FALSE,KSEA,5.809, Seattle,WA,-28800,08:00:00,07:59:59
KWRB,32.62,-83.58,"(-83.58,32.62)",FALSE,KMCN,5.811, Robins Air Force Base,GA,-18000,05:00:00,04:59:59
KOXR,34.2,-119.2,"(-119.2,34.2)",FALSE,KCMA,5.879, Oxnard,CA,-28800,08:00:00,07:59:59
KLDJ,40.62,-74.25,"(-74.25,40.62)",FALSE,KEWR,5.897, Linden,NJ,-18000,05:00:00,04:59:59
KHUA,34.68,-86.68,"(-86.68,34.68)",FALSE,KHSV,6.049, Huntsville,AL,-21600,06:00:00,05:59:59
KPAO,37.47,-122.12,"(-122.12,37.47)",FALSE,KNUQ,6.176, East Palo Alto,CA,-28800,08:00:00,07:59:59
KVNY,34.22,-118.48,"(-118.48,34.22)",FALSE,KBUR,6.435, Van Nuys,CA,-28800,08:00:00,07:59:59
KRHV,37.32,-121.82,"(-121.82,37.32)",FALSE,KSJC,6.489, San Jose,CA,-28800,08:00:00,07:59:59
KHND,35.98,-115.13,"(-115.13,35.98)",FALSE,KLAS,6.608, Henderson,NV,-28800,08:00:00,07:59:59
KMYF,32.82,-117.13,"(-117.13,32.82)",FALSE,KSAN,6.863, San Diego,CA,-28800,08:00:00,07:59:59
KJOT,41.52,-88.18,"(-88.18,41.52)",FALSE,KLOT,6.904, Joliet,IL,-21600,06:00:00,05:59:59
KBFI,47.55,-122.32,"(-122.32,47.55)",FALSE,KSEA,6.909, Seattle,WA,-28800,08:00:00,07:59:59
KEFD,29.6,-95.17,"(-95.17,29.6)",FALSE,KHOU,6.925, Houston,TX,-21600,06:00:00,05:59:59
KHWO,26,-80.23,"(-80.23,26)",FALSE,KFLL,6.932, Pembroke Pines,FL,-18000,05:00:00,04:59:59
KNTD,34.12,-119.12,"(-119.12,34.12)",FALSE,KCMA,7.003, Oxnard,CA,-28800,08:00:00,07:59:59
KY19,46.77,-100.9,"(-100.9,46.77)",FALSE,KBIS,7.099, Mandan,ND,-21600,06:00:00,05:59:59
KNXF,33.28,-117.45,"(-117.45,33.28)",FALSE,KOKB,7.111,USMC Camp Pendleton,CA,-28800,08:00:00,07:59:59
KFTG,39.78,-104.55,"(-104.55,39.78)",FALSE,KDEN,7.18, Watkins,CO,-25200,07:00:00,06:59:59
K7N0,29.95,-90.07,"(-90.07,29.95)",FALSE,KNEW,7.312, New Orleans,LA,-21600,06:00:00,05:59:59
KSMO,34.02,-118.45,"(-118.45,34.02)",FALSE,KLAX,7.4, Santa Monica,CA,-28800,08:00:00,07:59:59
KCRQ,33.13,-117.28,"(-117.28,33.13)",FALSE,KOKB,7.42, Carlsbad,CA,-28800,08:00:00,07:59:59
KSLI,33.77,-118.03,"(-118.03,33.77)",FALSE,KFUL,7.482, Westminster,CA,-28800,08:00:00,07:59:59
KCWF,30.22,-93.15,"(-93.15,30.22)",FALSE,KLCH,7.493, Lake Charles,LA,-21600,06:00:00,05:59:59
KTEB,40.87,-74.05,"(-74.05,40.87)",FALSE,KNYC,7.494, South Hackensack,NJ,-18000,05:00:00,04:59:59
KSVN,32.02,-81.15,"(-81.15,32.02)",FALSE,KSAV,7.504, Savannah,GA,-18000,05:00:00,04:59:59
KCBF,41.27,-95.77,"(-95.77,41.27)",FALSE,KOMA,7.581, Council Bluffs,IA,-21600,06:00:00,05:59:59
KAKR,41.03,-81.47,"(-81.47,41.03)",FALSE,KCAK,7.672, Akron,OH,-18000,05:00:00,04:59:59
KM30,37.18,-88.75,"(-88.75,37.18)",FALSE,KPAH,7.68, Metropolis,IL,-21600,06:00:00,05:59:59
KLVJ,29.52,-95.25,"(-95.25,29.52)",FALSE,KHOU,7.811, Pearland,TX,-21600,06:00:00,05:59:59
KFME,39.08,-76.77,"(-76.77,39.08)",FALSE,KBWI,7.87, Laurel,MD,-18000,05:00:00,04:59:59
K1YT,46.67,-120.45,"(-120.45,46.67)",FALSE,KYKM,7.884, Yakima,WA,-28800,08:00:00,07:59:59
KMER,37.38,-120.57,"(-120.57,37.38)",FALSE,KMCE,7.908, Atwater,CA,-28800,08:00:00,07:59:59
KMDD,32.03,-102.1,"(-102.1,32.03)",FALSE,KMAF,8.056, Midland,TX,-21600,06:00:00,05:59:59
KGMU,34.85,-82.35,"(-82.35,34.85)",FALSE,KGSP,8.139, Greenville,SC,-18000,05:00:00,04:59:59
KHKS,32.33,-90.22,"(-90.22,32.33)",FALSE,KJAN,8.203, Jackson,MS,-21600,06:00:00,05:59:59
KOPF,25.92,-80.28,"(-80.28,25.92)",FALSE,KMIA,8.291, Hialeah,FL,-18000,05:00:00,04:59:59
KOQU,41.6,-71.42,"(-71.42,41.6)",FALSE,KPVD,8.307, North Kingstown,RI,-18000,05:00:00,04:59:59
KIXD,38.82,-94.88,"(-94.88,38.82)",FALSE,KOJC,8.335, Olathe,KS,-21600,06:00:00,05:59:59
KDTN,32.55,-93.75,"(-93.75,32.55)",FALSE,KSHV,8.335, Shreveport,LA,-21600,06:00:00,05:59:59
K9MN,44.02,-92.48,"(-92.48,44.02)",FALSE,KRST,8.351, Rochester,MN,-21600,06:00:00,05:59:59
KFRI,39.03,-96.77,"(-96.77,39.03)",FALSE,KMHK,8.429, Junction City,KS,-21600,06:00:00,05:59:59
KMYZ,39.25,-96.63,"(-96.63,39.25)",FALSE,KMHK,8.713, Manhattan,KS,-21600,06:00:00,05:59:59
KBQK,31.25,-81.47,"(-81.47,31.25)",FALSE,KSSI,8.72, Brunswick,GA,-18000,05:00:00,04:59:59
KSHM,38.8,-104.52,"(-104.52,38.8)",FALSE,KCOS,8.724, Colorado Springs,CO,-25200,07:00:00,06:59:59
KDYS,32.42,-99.83,"(-99.83,32.42)",FALSE,KABI,8.749, Abilene,TX,-21600,06:00:00,05:59:59
KOMN,29.3,-81.12,"(-81.12,29.3)",FALSE,KDAB,8.822, Ormond Beach,FL,-18000,05:00:00,04:59:59
KADW,38.82,-76.87,"(-76.87,38.82)",FALSE,KDCA,8.857, Joint Base Andrews,MD,-18000,05:00:00,04:59:59
KORL,28.55,-81.33,"(-81.33,28.55)",FALSE,KMCO,8.982, Orlando,FL,-18000,05:00:00,04:59:59
KDLF,29.37,-100.77,"(-100.77,29.37)",FALSE,KDRT,9.032, Laughlin Air Force Base,TX,-21600,06:00:00,05:59:59
KCWC,33.85,-98.48,"(-98.48,33.85)",FALSE,KSPS,9.055, Wichita Falls,TX,-21600,06:00:00,05:59:59
KC29,43.12,-89.53,"(-89.53,43.12)",FALSE,KMSN,9.103, Middleton,WI,-21600,06:00:00,05:59:59
KFXE,26.2,-80.18,"(-80.18,26.2)",FALSE,KFLL,9.173, Pompano Beach,FL,-18000,05:00:00,04:59:59
KSCH,42.85,-73.92,"(-73.92,42.85)",FALSE,KALB,9.206, Schenectady,NY,-18000,05:00:00,04:59:59
KAJO,33.9,-117.6,"(-117.6,33.9)",FALSE,KRAL,9.268, Corona,CA,-28800,08:00:00,07:59:59
KOOA,41.23,-92.5,"(-92.5,41.23)",FALSE,KOTM,9.351, Cedar,IA,-21600,06:00:00,05:59:59
KCNW,31.63,-97.07,"(-97.07,31.63)",FALSE,KACT,9.439, Waco,TX,-21600,06:00:00,05:59:59
KSTP,44.93,-93.05,"(-93.05,44.93)",FALSE,KMSP,9.462, Saint Paul,MN,-21600,06:00:00,05:59:59
KCOF,28.23,-80.6,"(-80.6,28.23)",FALSE,KMLB,9.484, Patrick Air Force Base,FL,-18000,05:00:00,04:59:59
KMCJ,29.72,-95.4,"(-95.4,29.72)",FALSE,KHOU,9.516, Houston,TX,-21600,06:00:00,05:59:59
KSQL,37.52,-122.25,"(-122.25,37.52)",FALSE,KSFO,9.535, Redwood City,CA,-28800,08:00:00,07:59:59
KUXL,30.13,-93.38,"(-93.38,30.13)",FALSE,KLCH,9.561, Sulphur,LA,-21600,06:00:00,05:59:59
KDCU,34.65,-86.95,"(-86.95,34.65)",FALSE,KHSV,9.663, Tanner,AL,-21600,06:00:00,05:59:59
KMGE,33.92,-84.52,"(-84.52,33.92)",FALSE,KFTY,9.673, Marietta,GA,-18000,05:00:00,04:59:59
KFOE,38.93,-95.65,"(-95.65,38.93)",FALSE,KTOP,9.732, Berryton,KS,-21600,06:00:00,05:59:59
KSGS,44.87,-93.03,"(-93.03,44.87)",FALSE,KMSP,9.817, South Saint Paul,MN,-21600,06:00:00,05:59:59
KJKJ,46.83,-96.67,"(-96.67,46.83)",FALSE,KFAR,9.896, Glyndon,MN,-21600,06:00:00,05:59:59
KHAF,37.52,-122.5,"(-122.5,37.52)",FALSE,KSFO,9.921, Half Moon Bay,CA,-28800,08:00:00,07:59:59
KFBG,35.12,-78.92,"(-78.92,35.12)",FALSE,KFAY,9.934, Fayetteville,NC,-18000,05:00:00,04:59:59
KBAD,32.5,-93.67,"(-93.67,32.5)",FALSE,KSHV,9.945, Barksdale Air Force Base,LA,-21600,06:00:00,05:59:59
KCFD,30.72,-96.33,"(-96.33,30.72)",FALSE,KCLL,9.961, Bryan,TX,-21600,06:00:00,05:59:59
KGFA,47.5,-111.17,"(-111.17,47.5)",FALSE,KGTF,10.022, Great Falls,MT,-25200,07:00:00,06:59:59
KNKX,32.87,-117.13,"(-117.13,32.87)",FALSE,KSAN,10.1, San Diego,CA,-28800,08:00:00,07:59:59
KTOA,33.78,-118.32,"(-118.32,33.78)",FALSE,KLGB,10.144, Rolling Hills Estates,CA,-28800,08:00:00,07:59:59
KYIP,42.23,-83.53,"(-83.53,42.23)",FALSE,KDTW,10.232, Ypsilanti,MI,-18000,05:00:00,04:59:59
KRDR,47.97,-97.4,"(-97.4,47.97)",FALSE,KGFK,10.272, Arvilla,ND,-21600,06:00:00,05:59:59
KCWN,38.75,-104.85,"(-104.85,38.75)",FALSE,KCOS,10.355, Colorado Springs,CO,-25200,07:00:00,06:59:59
KCDA,44.57,-72.02,"(-72.02,44.57)",FALSE,K1V4,10.364, Lyndonville,VT,-18000,05:00:00,04:59:59
KU42,40.62,-111.98,"(-111.98,40.62)",FALSE,KSLC,10.377, West Jordan,UT,-25200,07:00:00,06:59:59
KBKF,39.72,-104.75,"(-104.75,39.72)",FALSE,KDEN,10.434, Aurora,CO,-25200,07:00:00,06:59:59
KDAL,32.85,-96.85,"(-96.85,32.85)",FALSE,KDFW,10.452, Dallas,TX,-21600,06:00:00,05:59:59
KVGT,36.22,-115.2,"(-115.2,36.22)",FALSE,KLAS,10.498, North Las Vegas,NV,-28800,08:00:00,07:59:59
KCWA,44.78,-89.67,"(-89.67,44.78)",FALSE,KAUW,10.649, Mosinee,WI,-21600,06:00:00,05:59:59
KFPR,27.5,-80.38,"(-80.38,27.5)",FALSE,KVRB,10.65, Fort Pierce,FL,-18000,05:00:00,04:59:59
KBDN,44.1,-121.2,"(-121.2,44.1)",FALSE,KRDM,10.656, Bend,OR,-28800,08:00:00,07:59:59
KL18,33.35,-117.25,"(-117.25,33.35)",FALSE,KOKB,10.679, Fallbrook,CA,-28800,08:00:00,07:59:59
KASG,36.17,-94.12,"(-94.12,36.17)",FALSE,KFYV,10.733, Springdale,AR,-21600,06:00:00,05:59:59
KPWA,35.53,-97.65,"(-97.65,35.53)",FALSE,KOKC,10.739, Bethany,OK,-21600,06:00:00,05:59:59
KCGS,38.98,-76.92,"(-76.92,38.98)",FALSE,KDCA,10.754, College Park,MD,-18000,05:00:00,04:59:59
KFLY,38.95,-104.57,"(-104.57,38.95)",FALSE,KCOS,10.755, Peyton,CO,-25200,07:00:00,06:59:59
KRBO,27.78,-97.68,"(-97.68,27.78)",FALSE,KCRP,11.026, Robstown,TX,-21600,06:00:00,05:59:59
KMTN,39.32,-76.42,"(-76.42,39.32)",FALSE,KDMH,11.045, Middle River,MD,-18000,05:00:00,04:59:59
KW96,37.5,-77.12,"(-77.12,37.5)",FALSE,KRIC,11.048, Quinton,VA,-18000,05:00:00,04:59:59
KMQY,36.02,-86.52,"(-86.52,36.02)",FALSE,KBNA,11.295, Smyrna,TN,-21600,06:00:00,05:59:59
KBNW,42.03,-93.83,"(-93.83,42.03)",FALSE,KAMW,11.322, Boone,IA,-21600,06:00:00,05:59:59
KAKH,35.2,-81.15,"(-81.15,35.2)",FALSE,KCLT,11.375, Gastonia,NC,-18000,05:00:00,04:59:59
KNTU,36.82,-76.02,"(-76.02,36.82)",FALSE,KORF,11.383, Virginia Beach,VA,-18000,05:00:00,04:59:59
K1A9,32.43,-86.52,"(-86.52,32.43)",FALSE,KMGM,11.39, Prattville,AL,-21600,06:00:00,05:59:59
KPOC,34.1,-117.77,"(-117.77,34.1)",FALSE,KONT,11.409, La Verne,CA,-28800,08:00:00,07:59:59
KISM,28.28,-81.43,"(-81.43,28.28)",FALSE,KMCO,11.425, Kissimmee,FL,-18000,05:00:00,04:59:59
KFCS,38.67,-104.77,"(-104.77,38.67)",FALSE,KCOS,11.443, Colorado Springs,CO,-25200,07:00:00,06:59:59
KBFM,30.62,-88.07,"(-88.07,30.62)",FALSE,KMOB,11.474, Mobile,AL,-21600,06:00:00,05:59:59
KFFO,39.82,-84.03,"(-84.03,39.82)",FALSE,KDAY,11.493, Fairborn,OH,-18000,05:00:00,04:59:59
KASN,33.57,-86.05,"(-86.05,33.57)",FALSE,KANB,11.534, Talladega,AL,-21600,06:00:00,05:59:59
KEVB,29.05,-80.95,"(-80.95,29.05)",FALSE,KDAB,11.539, New Smyrna Beach,FL,-18000,05:00:00,04:59:59
KMQE,42.22,-71.12,"(-71.12,42.22)",FALSE,KBOS,11.556, Milton,MA,-18000,05:00:00,04:59:59
KIKV,41.68,-93.57,"(-93.57,41.68)",FALSE,KDSM,11.58, Ankeny,IA,-21600,06:00:00,05:59:59
KNRS,32.57,-117.12,"(-117.12,32.57)",FALSE,KSAN,11.593, Imperial Beach,CA,-28800,08:00:00,07:59:59
KOUN,35.25,-97.47,"(-97.47,35.25)",FALSE,KOKC,11.593, Norman,OK,-21600,06:00:00,05:59:59
KJYO,39.07,-77.57,"(-77.57,39.07)",FALSE,KIAD,11.623, Leesburg,VA,-18000,05:00:00,04:59:59
KPWG,31.47,-97.32,"(-97.32,31.47)",FALSE,KACT,11.64, McGregor,TX,-21600,06:00:00,05:59:59
KRIV,33.87,-117.27,"(-117.27,33.87)",FALSE,KRAL,11.708, March Air Reserve Base,CA,-28800,08:00:00,07:59:59
KDAA,38.72,-77.17,"(-77.17,38.72)",FALSE,KDCA,11.727, Fort Belvoir,VA,-18000,05:00:00,04:59:59
KCCO,33.32,-84.77,"(-84.77,33.32)",FALSE,KFFC,11.73, Newnan,GA,-18000,05:00:00,04:59:59
KRVS,36.05,-95.98,"(-95.98,36.05)",FALSE,KTUL,11.771, Tulsa,OK,-21600,06:00:00,05:59:59
KODO,31.92,-102.4,"(-102.4,31.92)",FALSE,KMAF,11.909, Odessa,TX,-21600,06:00:00,05:59:59
KOSU,40.08,-83.08,"(-83.08,40.08)",FALSE,KCMH,11.936, Dublin,OH,-18000,05:00:00,04:59:59
KHEY,31.35,-85.65,"(-85.65,31.35)",FALSE,KDHN,11.984, Ozark,AL,-21600,06:00:00,05:59:59
KBKL,41.53,-81.67,"(-81.67,41.53)",FALSE,KCLE,12.025, Cleveland,OH,-18000,05:00:00,04:59:59
KRND,29.52,-98.27,"(-98.27,29.52)",FALSE,KSAT,12.044, Universal City,TX,-21600,06:00:00,05:59:59
KDYT,46.72,-92.03,"(-92.03,46.72)",FALSE,KDLH,12.057, Duluth,MN,-21600,06:00:00,05:59:59
KMIB,48.42,-101.33,"(-101.33,48.42)",FALSE,KMOT,12.065, Minot Air Force Base,ND,-21600,06:00:00,05:59:59
KMHR,38.53,-121.28,"(-121.28,38.53)",FALSE,KSAC,12.073,Kiefer Boulevard,CA,-28800,08:00:00,07:59:59
KMKY,26,-81.67,"(-81.67,26)",FALSE,KAPF,12.08, Naples,FL,-18000,05:00:00,04:59:59
KHWV,40.82,-72.87,"(-72.87,40.82)",FALSE,KISP,12.107, Shirley,NY,-18000,05:00:00,04:59:59
KFSW,40.67,-91.32,"(-91.32,40.67)",FALSE,KBRL,12.113, Fort Madison,IA,-21600,06:00:00,05:59:59
KVIS,36.32,-119.4,"(-119.4,36.32)",FALSE,KHJO,12.247, Visalia,CA,-28800,08:00:00,07:59:59
KFCM,44.83,-93.47,"(-93.47,44.83)",FALSE,KMSP,12.252, Eden Prairie,MN,-21600,06:00:00,05:59:59
KNPA,30.35,-87.32,"(-87.32,30.35)",FALSE,KPNS,12.258, Pensacola,FL,-21600,06:00:00,05:59:59
KIYA,29.98,-92.08,"(-92.08,29.98)",FALSE,KARA,12.455, Abbeville,LA,-21600,06:00:00,05:59:59
KAJG,38.62,-87.73,"(-87.73,38.62)",FALSE,KLWV,12.512, Saint Francisville,IL,-21600,06:00:00,05:59:59
KS39,44.28,-120.9,"(-120.9,44.28)",FALSE,KRDM,12.542, Prineville,OR,-28800,08:00:00,07:59:59
KADS,32.97,-96.82,"(-96.82,32.97)",FALSE,KDFW,12.566, Dallas,TX,-21600,06:00:00,05:59:59
KPMP,26.25,-80.12,"(-80.12,26.25)",FALSE,KFLL,12.575, Pompano Beach,FL,-18000,05:00:00,04:59:59
KSKF,29.37,-98.57,"(-98.57,29.37)",FALSE,KSAT,12.586, San Antonio,TX,-21600,06:00:00,05:59:59
KHYX,43.43,-83.87,"(-83.87,43.43)",FALSE,KMBS,12.593, Saginaw,MI,-18000,05:00:00,04:59:59
KLCK,39.82,-82.92,"(-82.92,39.82)",FALSE,KCMH,12.616, Columbus,OH,-18000,05:00:00,04:59:59
KONX,36.4,-76.02,"(-76.02,36.4)",FALSE,KECG,12.649, Maple,NC,-18000,05:00:00,04:59:59
KSUW,46.68,-92.1,"(-92.1,46.68)",FALSE,KDLH,12.664, Superior,WI,-21600,06:00:00,05:59:59
KENW,42.6,-87.93,"(-87.93,42.6)",FALSE,KUGN,12.807, Kenosha,WI,-21600,06:00:00,05:59:59
KAFF,38.97,-104.82,"(-104.82,38.97)",FALSE,KCOS,12.81, Colorado Springs,CO,-25200,07:00:00,06:59:59
KSET,38.93,-90.43,"(-90.43,38.93)",FALSE,KSTL,12.849, Portage Des Sioux,MO,-21600,06:00:00,05:59:59
KONZ,42.1,-83.15,"(-83.15,42.1)",FALSE,KDTW,12.871, Grosse Ile Township,MI,-18000,05:00:00,04:59:59
KOLV,34.98,-89.78,"(-89.78,34.98)",FALSE,KMEM,12.912, Olive Branch,MS,-21600,06:00:00,05:59:59
KMCC,38.67,-121.4,"(-121.4,38.67)",FALSE,KSAC,12.928, McClellan Park,CA,-28800,08:00:00,07:59:59
KDUH,41.73,-83.65,"(-83.65,41.73)",FALSE,KTOL,12.937, Ottawa Lake,MI,-18000,05:00:00,04:59:59
KRYN,32.15,-111.17,"(-111.17,32.15)",FALSE,KTUS,12.945, Tucson,AZ,-25200,07:00:00,06:59:59
KMMT,33.92,-80.78,"(-80.78,33.92)",FALSE,KCUB,13.075, Eastover,SC,-18000,05:00:00,04:59:59
KPXE,32.52,-83.77,"(-83.77,32.52)",FALSE,KMCN,13.077, Perry,GA,-18000,05:00:00,04:59:59
KRAC,42.77,-87.82,"(-87.82,42.77)",FALSE,KMKE,13.08, Racine,WI,-21600,06:00:00,05:59:59
KRTS,39.67,-119.88,"(-119.88,39.67)",FALSE,KRNO,13.125, Reno,NV,-28800,08:00:00,07:59:59
KEDC,30.4,-97.57,"(-97.57,30.4)",FALSE,KATT,13.143, Pflugerville,TX,-21600,06:00:00,05:59:59
KTIK,35.42,-97.37,"(-97.37,35.42)",FALSE,KOKC,13.245, Oklahoma City,OK,-21600,06:00:00,05:59:59
KLSV,36.22,-115.02,"(-115.02,36.22)",FALSE,KLAS,13.321, Las Vegas,NV,-28800,08:00:00,07:59:59
KBTA,41.42,-96.12,"(-96.12,41.42)",FALSE,KOMA,13.337, Blair,NE,-21600,06:00:00,05:59:59
KMWC,43.12,-88.03,"(-88.03,43.12)",FALSE,KMKE,13.456, Milwaukee,WI,-21600,06:00:00,05:59:59
KIKW,43.67,-84.27,"(-84.27,43.67)",FALSE,KMBS,13.563, Midland,MI,-18000,05:00:00,04:59:59
KMSY,30,-90.25,"(-90.25,30)",FALSE,KNEW,13.607, Kenner,LA,-21600,06:00:00,05:59:59
KSEE,32.82,-116.97,"(-116.97,32.82)",FALSE,KSAN,13.693, El Cajon,CA,-28800,08:00:00,07:59:59
KSWF,41.5,-74.08,"(-74.08,41.5)",FALSE,KPOU,13.696, Newburgh,NY,-18000,05:00:00,04:59:59
KFCI,37.4,-77.52,"(-77.52,37.4)",FALSE,KRIC,13.75, Richmond,VA,-18000,05:00:00,04:59:59
KVAD,30.97,-83.2,"(-83.2,30.97)",FALSE,KVLD,13.768, Moody Air Force Base,GA,-18000,05:00:00,04:59:59
KGYH,34.75,-82.38,"(-82.38,34.75)",FALSE,KGSP,13.776, Greenville,SC,-18000,05:00:00,04:59:59
KOFP,37.7,-77.43,"(-77.43,37.7)",FALSE,KRIC,13.817, Ashland,VA,-18000,05:00:00,04:59:59
KSSF,29.33,-98.47,"(-98.47,29.33)",FALSE,KSAT,13.819, San Antonio,TX,-21600,06:00:00,05:59:59
KPQI,46.67,-68.03,"(-68.03,46.67)",FALSE,KCAR,13.827, Presque Isle,ME,-18000,05:00:00,04:59:59
KLUK,39.1,-84.42,"(-84.42,39.1)",FALSE,KCVG,13.847, Cincinnati,OH,-18000,05:00:00,04:59:59
KOFF,41.12,-95.92,"(-95.92,41.12)",FALSE,KOMA,13.858, Offutt Air Force Base,NE,-21600,06:00:00,05:59:59
KLSF,32.32,-84.97,"(-84.97,32.32)",FALSE,KCSG,13.868, Fort Benning,GA,-18000,05:00:00,04:59:59
KVBG,34.73,-120.58,"(-120.58,34.73)",FALSE,KSMX,13.869, Lompoc,CA,-28800,08:00:00,07:59:59
KLRF,34.92,-92.15,"(-92.15,34.92)",FALSE,KLIT,13.89, Jacksonville,AR,-21600,06:00:00,05:59:59
KHFD,41.73,-72.65,"(-72.65,41.73)",FALSE,KBDL,13.905, Hartford,CT,-18000,05:00:00,04:59:59
KGPM,32.7,-97.05,"(-97.05,32.7)",FALSE,KDFW,13.928, Grand Prairie,TX,-21600,06:00:00,05:59:59
KJZI,32.7,-80,"(-80,32.7)",FALSE,KCHS,13.928, Johns Island,SC,-18000,05:00:00,04:59:59
KTMB,25.65,-80.43,"(-80.43,25.65)",FALSE,KMIA,13.949, Miami,FL,-18000,05:00:00,04:59:59
K4A7,33.38,-84.33,"(-84.33,33.38)",FALSE,KFFC,14.004, Hampton,GA,-18000,05:00:00,04:59:59
KEMT,34.07,-118.02,"(-118.02,34.07)",FALSE,KFUL,14.007, El Monte,CA,-28800,08:00:00,07:59:59
KBMT,30.07,-94.22,"(-94.22,30.07)",FALSE,KBPT,14.07, Beaumont,TX,-21600,06:00:00,05:59:59
KTYQ,40.03,-86.25,"(-86.25,40.03)",FALSE,KEYE,14.07, Zionsville,IN,-18000,05:00:00,04:59:59
KMLE,41.2,-96.12,"(-96.12,41.2)",FALSE,KOMA,14.118, Omaha,NE,-21600,06:00:00,05:59:59
KRCE,35.48,-97.82,"(-97.82,35.48)",FALSE,KOKC,14.183, Yukon,OK,-21600,06:00:00,05:59:59
KAXH,29.52,-95.48,"(-95.48,29.52)",FALSE,KHOU,14.22, Fresno,TX,-21600,06:00:00,05:59:59
KMKC,39.12,-94.6,"(-94.6,39.12)",FALSE,KMCI,14.252, North Kansas City,MO,-21600,06:00:00,05:59:59
KRSP,39.65,-77.47,"(-77.47,39.65)",FALSE,KHGR,14.252, Sabillasville,MD,-18000,05:00:00,04:59:59
KSFZ,41.92,-71.5,"(-71.5,41.92)",FALSE,KPVD,14.281, Smithfield,RI,-18000,05:00:00,04:59:59
KSDL,33.62,-111.92,"(-111.92,33.62)",FALSE,KPHX,14.336, Scottsdale,AZ,-25200,07:00:00,06:59:59
KNFE,36.7,-76.13,"(-76.13,36.7)",FALSE,KORF,14.351, Chesapeake,VA,-18000,05:00:00,04:59:59
KE16,37.08,-121.6,"(-121.6,37.08)",FALSE,KWVI,14.355, San Martin,CA,-28800,08:00:00,07:59:59
KMIC,45.07,-93.35,"(-93.35,45.07)",FALSE,KMSP,14.378, Minneapolis,MN,-21600,06:00:00,05:59:59
KBHC,31.72,-82.4,"(-82.4,31.72)",FALSE,KAMG,14.386, Baxley,GA,-18000,05:00:00,04:59:59
KAQW,42.7,-73.17,"(-73.17,42.7)",FALSE,KDDH,14.401, North Adams,MA,-18000,05:00:00,04:59:59
KPIB,31.47,-89.32,"(-89.32,31.47)",FALSE,KHBG,14.422, Moselle,MS,-21600,06:00:00,05:59:59
KLRO,32.9,-79.78,"(-79.78,32.9)",FALSE,KCHS,14.503, Mount Pleasant,SC,-18000,05:00:00,04:59:59
KMEV,38.98,-119.75,"(-119.75,38.98)",FALSE,KTVL,14.528, Minden,NV,-28800,08:00:00,07:59:59
KMAN,43.58,-116.52,"(-116.52,43.58)",FALSE,KBOI,14.533, Nampa,ID,-25200,07:00:00,06:59:59
KSBD,34.08,-117.25,"(-117.25,34.08)",FALSE,KRAL,14.556, San Bernardino,CA,-28800,08:00:00,07:59:59
KAWM,35.13,-90.23,"(-90.23,35.13)",FALSE,KMEM,14.728, West Memphis,AR,-21600,06:00:00,05:59:59
KSDM,32.58,-117,"(-117,32.58)",FALSE,KSAN,14.733, San Diego,CA,-28800,08:00:00,07:59:59
KDED,29.07,-81.28,"(-81.28,29.07)",FALSE,KDAB,14.779, DeLand,FL,-18000,05:00:00,04:59:59
KMMU,40.78,-74.42,"(-74.42,40.78)",FALSE,KEWR,14.801, Florham Park,NJ,-18000,05:00:00,04:59:59
KSMF,38.7,-121.6,"(-121.6,38.7)",FALSE,KSAC,14.836, Sacramento,CA,-28800,08:00:00,07:59:59
KSPB,45.77,-122.87,"(-122.87,45.77)",FALSE,KVUO,14.837, Scappoose,OR,-28800,08:00:00,07:59:59
K0A9,36.37,-82.17,"(-82.17,36.37)",FALSE,KTRI,14.875, Elizabethton,TN,-18000,05:00:00,04:59:59
KTZR,39.9,-83.13,"(-83.13,39.9)",FALSE,KCMH,14.936, Grove City,OH,-18000,05:00:00,04:59:59
KCDW,40.88,-74.28,"(-74.28,40.88)",FALSE,KEWR,14.969, Fairfield,NJ,-18000,05:00:00,04:59:59
KHEF,38.72,-77.52,"(-77.52,38.72)",FALSE,KIAD,14.991, Manassas,VA,-18000,05:00:00,04:59:59
KFHB,30.62,-81.47,"(-81.47,30.62)",FALSE,KJAX,14.995, Fernandina Beach,FL,-18000,05:00:00,04:59:59
KI67,39.25,-84.78,"(-84.78,39.25)",FALSE,KCVG,15.023, Harrison,OH,-18000,05:00:00,04:59:59
KLFI,37.07,-76.37,"(-76.37,37.07)",FALSE,KORF,15.033, Hampton,VA,-18000,05:00:00,04:59:59
KDVO,38.15,-122.55,"(-122.55,38.15)",FALSE,KAPC,15.067, Novato,CA,-28800,08:00:00,07:59:59
KOWP,36.18,-96.15,"(-96.15,36.18)",FALSE,KTUL,15.119, Sand Springs,OK,-21600,06:00:00,05:59:59
KCRG,30.33,-81.52,"(-81.52,30.33)",FALSE,KJAX,15.128, Jacksonville,FL,-18000,05:00:00,04:59:59
KHVN,41.27,-72.87,"(-72.87,41.27)",FALSE,KBDR,15.176, East Haven,CT,-18000,05:00:00,04:59:59
KNKT,34.9,-76.88,"(-76.88,34.9)",FALSE,KEWN,15.185, Havelock,NC,-18000,05:00:00,04:59:59
KOWD,42.18,-71.17,"(-71.17,42.18)",FALSE,KBOS,15.203, Norwood,MA,-18000,05:00:00,04:59:59
KINT,36.13,-80.22,"(-80.22,36.13)",FALSE,KGSO,15.212, Winston-Salem,NC,-18000,05:00:00,04:59:59
KPUJ,33.92,-84.93,"(-84.93,33.92)",FALSE,KVPC,15.216, Dallas,GA,-18000,05:00:00,04:59:59
KWVL,44.52,-69.67,"(-69.67,44.52)",FALSE,KAUG,15.235, Waterville,ME,-18000,05:00:00,04:59:59
KUUU,41.53,-71.28,"(-71.28,41.53)",FALSE,KPVD,15.243, Middletown,RI,-18000,05:00:00,04:59:59
KGVE,38.15,-78.17,"(-78.17,38.15)",FALSE,KCHO,15.278, Gordonsville,VA,-18000,05:00:00,04:59:59
KEDU,38.53,-121.78,"(-121.78,38.53)",FALSE,KSAC,15.279, Davis,CA,-28800,08:00:00,07:59:59
KPOB,35.17,-79.02,"(-79.02,35.17)",FALSE,KFAY,15.33, Fayetteville,NC,-18000,05:00:00,04:59:59
K0V4,37.15,-79.02,"(-79.02,37.15)",FALSE,KLYH,15.363, Gladys,VA,-18000,05:00:00,04:59:59
KBVY,42.58,-70.92,"(-70.92,42.58)",FALSE,KBOS,15.378, Danvers,MA,-18000,05:00:00,04:59:59
KNGP,27.68,-97.27,"(-97.27,27.68)",FALSE,KCRP,15.38, Corpus Christi,TX,-21600,06:00:00,05:59:59
KMYR,33.67,-78.92,"(-78.92,33.67)",FALSE,KCRE,15.474, Myrtle Beach,SC,-18000,05:00:00,04:59:59
KRMY,42.23,-84.95,"(-84.95,42.23)",FALSE,KBTL,15.607, Marshall,MI,-18000,05:00:00,04:59:59
KFXY,43.23,-93.62,"(-93.62,43.23)",FALSE,KMCW,15.619, Forest City,IA,-21600,06:00:00,05:59:59
KUKT,40.43,-75.38,"(-75.38,40.43)",FALSE,KABE,15.639, Quakertown,PA,-18000,05:00:00,04:59:59
KJEF,38.6,-92.15,"(-92.15,38.6)",FALSE,KCOU,15.662, Holts Summit,MO,-21600,06:00:00,05:59:59
KDWU,38.55,-82.73,"(-82.73,38.55)",FALSE,KHTS,15.796, Worthington,KY,-18000,05:00:00,04:59:59
KDKB,41.93,-88.7,"(-88.7,41.93)",FALSE,KARR,15.825, DeKalb,IL,-21600,06:00:00,05:59:59
KBED,42.47,-71.3,"(-71.3,42.47)",FALSE,KBOS,15.865, Concord,MA,-18000,05:00:00,04:59:59
KHDN,40.47,-107.22,"(-107.22,40.47)",FALSE,KCAG,15.901, Hayden,CO,-25200,07:00:00,06:59:59
KNBG,29.82,-90.02,"(-90.02,29.82)",FALSE,KNEW,15.903, Belle Chasse,LA,-21600,06:00:00,05:59:59
KCIU,46.25,-84.47,"(-84.47,46.25)",FALSE,KANJ,15.931, Kincheloe,MI,-18000,05:00:00,04:59:59
KLPC,34.67,-120.47,"(-120.47,34.67)",FALSE,KSMX,15.932, Lompoc,CA,-28800,08:00:00,07:59:59
KCHD,33.27,-111.82,"(-111.82,33.27)",FALSE,KPHX,15.983, Chandler,AZ,-25200,07:00:00,06:59:59
KORG,30.07,-93.8,"(-93.8,30.07)",FALSE,KBPT,16.066, Orange,TX,-21600,06:00:00,05:59:59
KRYT,39.73,-77.43,"(-77.43,39.73)",FALSE,KHGR,16.079, Fairfield,PA,-18000,05:00:00,04:59:59
K19A,34.18,-83.57,"(-83.57,34.18)",FALSE,KGVL,16.103, Commerce,GA,-18000,05:00:00,04:59:59
KPVG,36.78,-76.45,"(-76.45,36.78)",FALSE,KORF,16.12, Chesapeake,VA,-18000,05:00:00,04:59:59
KOZR,31.28,-85.72,"(-85.72,31.28)",FALSE,KDHN,16.178, Daleville,AL,-21600,06:00:00,05:59:59
KDYL,40.33,-75.12,"(-75.12,40.33)",FALSE,KTTN,16.18, Doylestown,PA,-18000,05:00:00,04:59:59
KRYY,34.02,-84.6,"(-84.6,34.02)",FALSE,KVPC,16.201, Kennesaw,GA,-18000,05:00:00,04:59:59
KPPO,41.57,-86.73,"(-86.73,41.57)",FALSE,KVPZ,16.245, La Porte,IN,-21600,06:00:00,05:59:59
KIGX,35.93,-79.07,"(-79.07,35.93)",FALSE,KRDU,16.36, Chapel Hill,NC,-18000,05:00:00,04:59:59
KSPA,34.92,-81.93,"(-81.93,34.92)",FALSE,KGSP,16.489, Spartanburg,SC,-18000,05:00:00,04:59:59
KTDZ,41.57,-83.48,"(-83.48,41.57)",FALSE,KTOL,16.554, Millbury,OH,-18000,05:00:00,04:59:59
KGKY,32.67,-97.1,"(-97.1,32.67)",FALSE,KDFW,16.557, Arlington,TX,-21600,06:00:00,05:59:59
KEKM,41.72,-86,"(-86,41.72)",FALSE,KSBN,16.563, Elkhart,IN,-18000,05:00:00,04:59:59
KIAG,43.12,-78.93,"(-78.93,43.12)",FALSE,KBUF,16.565, Sanborn,NY,-18000,05:00:00,04:59:59
KSUS,38.65,-90.65,"(-90.65,38.65)",FALSE,KSTL,16.604, Chesterfield,MO,-21600,06:00:00,05:59:59
KGTB,44.07,-75.72,"(-75.72,44.07)",FALSE,KART,16.609, Fort Drum,NY,-18000,05:00:00,04:59:59
KTEW,42.57,-84.42,"(-84.42,42.57)",FALSE,KLAN,16.631, Mason,MI,-18000,05:00:00,04:59:59
KBAF,42.17,-72.72,"(-72.72,42.17)",FALSE,KBDL,16.709, Westfield,MA,-18000,05:00:00,04:59:59
KHHG,40.85,-85.45,"(-85.45,40.85)",FALSE,KFWA,16.716, Huntington,IN,-18000,05:00:00,04:59:59
KNAK,38.98,-76.48,"(-76.48,38.98)",FALSE,KBWI,16.953, Annapolis,MD,-18000,05:00:00,04:59:59
KGRF,47.07,-122.57,"(-122.57,47.07)",FALSE,KOLM,17.011, Fort Lewis,WA,-28800,08:00:00,07:59:59
KJQF,35.38,-80.72,"(-80.72,35.38)",FALSE,KCLT,17.042, Concord,NC,-18000,05:00:00,04:59:59
KIZA,34.6,-120.07,"(-120.07,34.6)",FALSE,KSBA,17.171, Santa Ynez,CA,-28800,08:00:00,07:59:59
KCPS,38.57,-90.15,"(-90.15,38.57)",FALSE,KSTL,17.192, Cahokia,IL,-21600,06:00:00,05:59:59
KCPK,36.67,-76.32,"(-76.32,36.67)",FALSE,KORF,17.223, Chesapeake,VA,-18000,05:00:00,04:59:59
KRYW,30.5,-97.97,"(-97.97,30.5)",FALSE,KATT,17.225, Leander,TX,-21600,06:00:00,05:59:59
K42J,29.85,-82.05,"(-82.05,29.85)",FALSE,KGNV,17.253, Starke,FL,-18000,05:00:00,04:59:59
KLVN,44.63,-93.23,"(-93.23,44.63)",FALSE,KMSP,17.273, Lakeville,MN,-21600,06:00:00,05:59:59
KUSE,41.62,-84.13,"(-84.13,41.62)",FALSE,KTOL,17.273, Wauseon,OH,-18000,05:00:00,04:59:59
KNMM,32.53,-88.57,"(-88.57,32.53)",FALSE,KMEI,17.354, Lauderdale,MS,-21600,06:00:00,05:59:59
KT65,26.18,-97.97,"(-97.97,26.18)",FALSE,KMFE,17.361, Weslaco,TX,-21600,06:00:00,05:59:59
KPNE,40.08,-75.02,"(-75.02,40.08)",FALSE,KTTN,17.39, Philadelphia,PA,-18000,05:00:00,04:59:59
KTIW,47.27,-122.58,"(-122.58,47.27)",FALSE,KSEA,17.4, Gig Harbor,WA,-28800,08:00:00,07:59:59
KFRG,40.73,-73.42,"(-73.42,40.73)",FALSE,KISP,17.43, Farmingdale,NY,-18000,05:00:00,04:59:59
KRSV,39.02,-87.65,"(-87.65,39.02)",FALSE,KLWV,17.481, Palestine,IL,-21600,06:00:00,05:59:59
KDVT,33.68,-112.07,"(-112.07,33.68)",FALSE,KPHX,17.512, Phoenix,AZ,-25200,07:00:00,06:59:59
KFFZ,33.47,-111.72,"(-111.72,33.47)",FALSE,KPHX,17.514, Mesa,AZ,-25200,07:00:00,06:59:59
KUZA,34.98,-81.05,"(-81.05,34.98)",FALSE,KCLT,17.519, Rock Hill,SC,-18000,05:00:00,04:59:59
KRBD,32.68,-96.87,"(-96.87,32.68)",FALSE,KDFW,17.52, Dallas,TX,-21600,06:00:00,05:59:59
KGEU,33.53,-112.3,"(-112.3,33.53)",FALSE,KPHX,17.553, Glendale,AZ,-25200,07:00:00,06:59:59
KNRB,30.38,-81.42,"(-81.42,30.38)",FALSE,KJAX,17.568, Jacksonville,FL,-18000,05:00:00,04:59:59
KCOQ,46.7,-92.5,"(-92.5,46.7)",FALSE,KDLH,17.577, Cloquet,MN,-21600,06:00:00,05:59:59
KRFI,32.15,-94.85,"(-94.85,32.15)",FALSE,KGGG,17.613, Henderson,TX,-21600,06:00:00,05:59:59
KO69,38.25,-122.6,"(-122.6,38.25)",FALSE,KAPC,17.709, Petaluma,CA,-28800,08:00:00,07:59:59
KLPR,41.35,-82.18,"(-82.18,41.35)",FALSE,KCLE,17.778, Elyria,OH,-18000,05:00:00,04:59:59
KESF,31.4,-92.28,"(-92.28,31.4)",FALSE,KAEX,17.779, Pineville,LA,-21600,06:00:00,05:59:59
KAUH,40.88,-98,"(-98,40.88)",FALSE,KGRI,17.825, Aurora,NE,-21600,06:00:00,05:59:59
KLOR,31.35,-85.75,"(-85.75,31.35)",FALSE,KDHN,17.826, Enterprise,AL,-21600,06:00:00,05:59:59
KUAO,45.25,-122.77,"(-122.77,45.25)",FALSE,KMMV,17.856, Aurora,OR,-28800,08:00:00,07:59:59
KEHR,37.82,-87.67,"(-87.67,37.82)",FALSE,KEVV,17.87, Henderson,KY,-21600,06:00:00,05:59:59
KNDZ,30.7,-87.02,"(-87.02,30.7)",FALSE,KPNS,17.934, Milton,FL,-21600,06:00:00,05:59:59
KTOB,44.02,-92.82,"(-92.82,44.02)",FALSE,KRST,17.945, Dodge Center,MN,-21600,06:00:00,05:59:59
KAFW,32.97,-97.32,"(-97.32,32.97)",FALSE,KDFW,18.057, Fort Worth,TX,-21600,06:00:00,05:59:59
KBQP,32.75,-91.88,"(-91.88,32.75)",FALSE,KMLU,18.13, Bastrop,LA,-21600,06:00:00,05:59:59
KHAI,41.97,-85.6,"(-85.6,41.97)",FALSE,KAZO,18.146, Three Rivers,MI,-18000,05:00:00,04:59:59
KPIL,26.17,-97.33,"(-97.33,26.17)",FALSE,KBRO,18.154, Los Fresnos,TX,-21600,06:00:00,05:59:59
KBBG,36.53,-93.2,"(-93.2,36.53)",FALSE,KHRO,18.178, Hollister,MO,-21600,06:00:00,05:59:59
K2J9,30.6,-84.55,"(-84.55,30.6)",FALSE,KTLH,18.241, Quincy,FL,-18000,05:00:00,04:59:59
KNLC,36.32,-119.95,"(-119.95,36.32)",FALSE,KHJO,18.371, Lemoore,CA,-28800,08:00:00,07:59:59
KTIP,40.28,-88.15,"(-88.15,40.28)",FALSE,KCMI,18.399, Rantoul,IL,-21600,06:00:00,05:59:59
KMWS,34.23,-118.05,"(-118.05,34.23)",FALSE,KBUR,18.4, Rim Trail,CA,-28800,08:00:00,07:59:59
KMUI,40.42,-76.57,"(-76.57,40.42)",FALSE,KMDT,18.496, Annville,PA,-18000,05:00:00,04:59:59
KDYB,33.07,-80.28,"(-80.28,33.07)",FALSE,KCHS,18.652, Summerville,SC,-18000,05:00:00,04:59:59
KANE,45.15,-93.22,"(-93.22,45.15)",FALSE,KMSP,18.662, Blaine,MN,-21600,06:00:00,05:59:59
KBVU,35.95,-114.87,"(-114.87,35.95)",FALSE,KLAS,18.705, Boulder City,NV,-28800,08:00:00,07:59:59
KCVH,36.9,-121.42,"(-121.42,36.9)",FALSE,KSNS,18.755, Hollister,CA,-28800,08:00:00,07:59:59
KFPK,42.57,-84.82,"(-84.82,42.57)",FALSE,KLAN,18.952, Charlotte,MI,-18000,05:00:00,04:59:59
KMHT,42.93,-71.43,"(-71.43,42.93)",FALSE,KCON,18.987, Londonderry,NH,-18000,05:00:00,04:59:59
KUES,43.05,-88.25,"(-88.25,43.05)",FALSE,KMKE,18.988, Pewaukee,WI,-21600,06:00:00,05:59:59
KOXI,41.33,-86.67,"(-86.67,41.33)",FALSE,KVPZ,19.009, Knox,IN,-21600,06:00:00,05:59:59
K5C1,29.72,-98.7,"(-98.7,29.72)",FALSE,KSAT,19.057, Boerne,TX,-21600,06:00:00,05:59:59
KORS,48.7,-122.92,"(-122.92,48.7)",FALSE,KBLI,19.063, Eastsound,WA,-28800,08:00:00,07:59:59
K6A2,33.23,-84.27,"(-84.27,33.23)",FALSE,KFFC,19.208, Griffin,GA,-18000,05:00:00,04:59:59
KCWI,41.82,-90.32,"(-90.32,41.82)",FALSE,KDVN,19.255, Clinton,IA,-21600,06:00:00,05:59:59
KRRL,45.2,-89.72,"(-89.72,45.2)",FALSE,KAUW,19.283, Merrill,WI,-21600,06:00:00,05:59:59
KRNP,43,-84.13,"(-84.13,43)",FALSE,KFNT,19.318, Owosso,MI,-18000,05:00:00,04:59:59
KMJQ,43.63,-94.97,"(-94.97,43.63)",FALSE,KEST,19.34, Jackson,MN,-21600,06:00:00,05:59:59
KMKS,33.18,-80.03,"(-80.03,33.18)",FALSE,KCHS,19.346, Moncks Corner,SC,-18000,05:00:00,04:59:59
KNIP,30.22,-81.67,"(-81.67,30.22)",FALSE,KJAX,19.355, Jacksonville,FL,-18000,05:00:00,04:59:59
KXNA,36.28,-94.3,"(-94.3,36.28)",FALSE,KFYV,19.373, Bentonville,AR,-21600,06:00:00,05:59:59
KMQJ,39.85,-85.9,"(-85.9,39.85)",FALSE,KGEZ,19.397, McCordsville,IN,-18000,05:00:00,04:59:59
KSZL,38.72,-93.53,"(-93.53,38.72)",FALSE,KDMO,19.407, Knob Noster,MO,-21600,06:00:00,05:59:59
KCCU,39.48,-106.15,"(-106.15,39.48)",FALSE,KLXV,19.515, Frisco,CO,-25200,07:00:00,06:59:59
KWDR,33.98,-83.67,"(-83.67,33.98)",FALSE,KAHN,19.593, Winder,GA,-18000,05:00:00,04:59:59
KMGC,41.7,-86.82,"(-86.82,41.7)",FALSE,KVPZ,19.62, Michigan City,IN,-21600,06:00:00,05:59:59
KOQT,36.02,-84.23,"(-84.23,36.02)",FALSE,KTYS,19.663, Oak Ridge,TN,-18000,05:00:00,04:59:59
KLUM,44.9,-91.87,"(-91.87,44.9)",FALSE,KEAU,19.691, Menomonie,WI,-21600,06:00:00,05:59:59
KSPL,26.07,-97.15,"(-97.15,26.07)",FALSE,KBRO,19.712, South Padre Island,TX,-21600,06:00:00,05:59:59
KDET,42.4,-83.02,"(-83.02,42.4)",FALSE,KDTW,19.718, Detroit,MI,-18000,05:00:00,04:59:59
KNSE,30.73,-87.02,"(-87.02,30.73)",FALSE,KPNS,19.721, Milton,FL,-21600,06:00:00,05:59:59
KEUL,43.62,-116.62,"(-116.62,43.62)",FALSE,KBOI,19.819, Nampa,ID,-25200,07:00:00,06:59:59
KTKV,45.47,-89.82,"(-89.82,45.47)",FALSE,KRHI,19.82, Tomahawk,WI,-21600,06:00:00,05:59:59
KJVW,32.3,-90.42,"(-90.42,32.3)",FALSE,KJAN,19.902, Bolton,MS,-21600,06:00:00,05:59:59
K5SM,39.43,-107.38,"(-107.38,39.43)",FALSE,KRIL,19.903, Glenwood Springs,CO,-25200,07:00:00,06:59:59
KSUU,38.27,-121.92,"(-121.92,38.27)",FALSE,KCCR,19.948, Fairfield,CA,-28800,08:00:00,07:59:59
KTFP,27.92,-97.22,"(-97.22,27.92)",FALSE,KCRP,20.001, Aransas Pass,TX,-21600,06:00:00,05:59:59
KUCP,41.03,-80.42,"(-80.42,41.03)",FALSE,KYNG,20.007, Edinburg,PA,-18000,05:00:00,04:59:59
KMDQ,34.87,-86.55,"(-86.55,34.87)",FALSE,KHSV,20.038, Meridianville,AL,-21600,06:00:00,05:59:59
KRWV,30.52,-96.7,"(-96.7,30.52)",FALSE,KCLL,20.069, Caldwell,TX,-21600,06:00:00,05:59:59
KEBG,26.45,-98.13,"(-98.13,26.45)",FALSE,KMFE,20.081, Edinburg,TX,-21600,06:00:00,05:59:59
KHAE,39.73,-91.45,"(-91.45,39.73)",FALSE,KUIN,20.173, Hannibal,MO,-21600,06:00:00,05:59:59
KGYR,33.42,-112.37,"(-112.37,33.42)",FALSE,KPHX,20.195, Goodyear,AZ,-25200,07:00:00,06:59:59
KTHV,39.92,-76.88,"(-76.88,39.92)",FALSE,KMDT,20.202, Thomasville,PA,-18000,05:00:00,04:59:59
KAYS,31.25,-82.4,"(-82.4,31.25)",FALSE,KAMG,20.225, Waycross,GA,-18000,05:00:00,04:59:59
K5A6,33.47,-89.73,"(-89.73,33.47)",FALSE,KGWO,20.275, Winona,MS,-21600,06:00:00,05:59:59
KFIT,42.55,-71.75,"(-71.75,42.55)",FALSE,KORH,20.292, Leominster,MA,-18000,05:00:00,04:59:59
KGYY,41.62,-87.42,"(-87.42,41.62)",FALSE,KMDW,20.298, Gary,IN,-21600,06:00:00,05:59:59
KC09,41.43,-88.42,"(-88.42,41.43)",FALSE,KLOT,20.299, Morris,IL,-21600,06:00:00,05:59:59
KNQA,35.35,-89.87,"(-89.87,35.35)",FALSE,KMEM,20.318, Millington,TN,-21600,06:00:00,05:59:59
KSEZ,34.85,-111.78,"(-111.78,34.85)",FALSE,KFLG,20.323, Sedona,AZ,-25200,07:00:00,06:59:59
K21D,45,-92.85,"(-92.85,45)",FALSE,KMSP,20.35, Stillwater,MN,-21600,06:00:00,05:59:59
KAFJ,40.12,-80.27,"(-80.27,40.12)",FALSE,KHLG,20.365, Washington,PA,-18000,05:00:00,04:59:59
KPWT,47.5,-122.75,"(-122.75,47.5)",FALSE,KSEA,20.376, Bremerton,WA,-28800,08:00:00,07:59:59
KCEF,42.2,-72.52,"(-72.52,42.2)",FALSE,KBDL,20.381, Ludlow,MA,-18000,05:00:00,04:59:59
KALN,38.88,-90.03,"(-90.03,38.88)",FALSE,KSTL,20.389, Bethalto,IL,-21600,06:00:00,05:59:59
KCLS,46.68,-122.98,"(-122.98,46.68)",FALSE,KOLM,20.391, Chehalis,WA,-28800,08:00:00,07:59:59
KARB,42.22,-83.73,"(-83.73,42.22)",FALSE,KDTW,20.477, Ann Arbor,MI,-18000,05:00:00,04:59:59
KUDG,34.45,-79.88,"(-79.88,34.45)",FALSE,KFLO,20.525, Society Hill,SC,-18000,05:00:00,04:59:59
KLHQ,39.75,-82.67,"(-82.67,39.75)",FALSE,KCMH,20.551, Carroll,OH,-18000,05:00:00,04:59:59
KOXB,38.32,-75.12,"(-75.12,38.32)",FALSE,KSBY,20.609, Berlin,MD,-18000,05:00:00,04:59:59
KIGQ,41.53,-87.53,"(-87.53,41.53)",FALSE,KMDW,20.672, Lynwood,IL,-21600,06:00:00,05:59:59
KOXC,41.47,-73.13,"(-73.13,41.47)",FALSE,KBDR,20.728, Oxford,CT,-18000,05:00:00,04:59:59
KBCT,26.38,-80.1,"(-80.1,26.38)",FALSE,KPBI,20.728, Boca Raton,FL,-18000,05:00:00,04:59:59
KMGY,39.6,-84.23,"(-84.23,39.6)",FALSE,KDAY,20.735, Miamisburg,OH,-18000,05:00:00,04:59:59
KOKV,39.13,-78.15,"(-78.15,39.13)",FALSE,KMRB,20.754, Winchester,VA,-18000,05:00:00,04:59:59
KSLG,36.2,-94.47,"(-94.47,36.2)",FALSE,KFYV,20.859, Siloam Springs,AR,-21600,06:00:00,05:59:59
KFTW,32.83,-97.37,"(-97.37,32.83)",FALSE,KDFW,20.88, Fort Worth,TX,-21600,06:00:00,05:59:59
KFWZ,42.52,-108.78,"(-108.78,42.52)",FALSE,KLND,20.883, Lander,WY,-25200,07:00:00,06:59:59
KBOK,42.07,-124.28,"(-124.28,42.07)",FALSE,KCEC,20.956, Brookings,OR,-28800,08:00:00,07:59:59
KSHN,47.23,-123.13,"(-123.13,47.23)",FALSE,KOLM,20.97, Shelton,WA,-28800,08:00:00,07:59:59
KEDW,34.88,-117.87,"(-117.87,34.88)",FALSE,KPMD,20.988, Edwards,CA,-28800,08:00:00,07:59:59
KABH,38.75,-104.3,"(-104.3,38.75)",FALSE,KCOS,21.03, Calhan,CO,-25200,07:00:00,06:59:59
KLXT,38.97,-94.37,"(-94.37,38.97)",FALSE,KOJC,21.056, Lees Summit,MO,-21600,06:00:00,05:59:59
KMEB,34.78,-79.37,"(-79.37,34.78)",FALSE,KLBT,21.099, Laurinburg,NC,-18000,05:00:00,04:59:59
KLUF,33.52,-112.37,"(-112.37,33.52)",FALSE,KPHX,21.108, Litchfield Park,AZ,-25200,07:00:00,06:59:59
KAGC,40.35,-79.92,"(-79.92,40.35)",FALSE,KPIT,21.126, West Mifflin,PA,-18000,05:00:00,04:59:59
K1II,39.33,-86.03,"(-86.03,39.33)",FALSE,KGEZ,21.188, Columbus,IN,-18000,05:00:00,04:59:59
KTTF,41.93,-83.42,"(-83.42,41.93)",FALSE,KDTW,21.236, Monroe,MI,-18000,05:00:00,04:59:59
KFZY,43.35,-76.38,"(-76.38,43.35)",FALSE,KSYR,21.241, Fulton,NY,-18000,05:00:00,04:59:59
KSGH,39.83,-83.83,"(-83.83,39.83)",FALSE,KDAY,21.241, Springfield,OH,-18000,05:00:00,04:59:59
KFFX,43.43,-86,"(-86,43.43)",FALSE,KMKG,21.365, Fremont,MI,-18000,05:00:00,04:59:59
KAJZ,38.78,-108.07,"(-108.07,38.78)",FALSE,KMTJ,21.411, Delta,CO,-25200,07:00:00,06:59:59
KPKV,28.65,-96.68,"(-96.68,28.65)",FALSE,KVCT,21.456, Port Lavaca,TX,-21600,06:00:00,05:59:59
KFIN,29.47,-81.2,"(-81.2,29.47)",FALSE,KDAB,21.513, Palm Coast,FL,-18000,05:00:00,04:59:59
KPNA,42.8,-109.8,"(-109.8,42.8)",FALSE,KBPI,21.522, Pinedale,WY,-25200,07:00:00,06:59:59
KMGJ,41.52,-74.27,"(-74.27,41.52)",FALSE,KPOU,21.543, Montgomery,NY,-18000,05:00:00,04:59:59
KVAY,39.93,-74.83,"(-74.83,39.93)",FALSE,KPHL,21.604, Medford,NJ,-18000,05:00:00,04:59:59
KFKR,40.27,-86.57,"(-86.57,40.27)",FALSE,KLAF,21.606, Frankfort,IN,-18000,05:00:00,04:59:59
KVTA,40.02,-82.47,"(-82.47,40.02)",FALSE,KCMH,21.741, Heath,OH,-18000,05:00:00,04:59:59
KVCB,38.38,-121.95,"(-121.95,38.38)",FALSE,KAPC,21.793, Vacaville,CA,-28800,08:00:00,07:59:59
KPNM,45.57,-93.6,"(-93.6,45.57)",FALSE,KSTC,21.813, Princeton,MN,-21600,06:00:00,05:59:59
KIPJ,35.48,-81.17,"(-81.17,35.48)",FALSE,KCLT,21.827, Lincolnton,NC,-18000,05:00:00,04:59:59
KWRI,40.02,-74.58,"(-74.58,40.02)",FALSE,KTTN,21.986, Trenton,NJ,-18000,05:00:00,04:59:59
KGPH,39.33,-94.32,"(-94.32,39.33)",FALSE,KMCI,22.015, Excelsior Springs,MO,-21600,06:00:00,05:59:59
KDQH,31.48,-82.87,"(-82.87,31.48)",FALSE,KAMG,22.068, Douglas,GA,-18000,05:00:00,04:59:59
KBAK,39.27,-85.9,"(-85.9,39.27)",FALSE,KGEZ,22.074, Columbus,IN,-18000,05:00:00,04:59:59
KETH,45.78,-96.55,"(-96.55,45.78)",FALSE,K8D3,22.089, Wheaton,MN,-21600,06:00:00,05:59:59
KPQL,30.47,-88.53,"(-88.53,30.47)",FALSE,KMOB,22.09, Moss Point,MS,-21600,06:00:00,05:59:59
KHPN,41.07,-73.7,"(-73.7,41.07)",FALSE,KLGA,22.131, Greenwich,CT,-18000,05:00:00,04:59:59
KRPJ,41.88,-89.08,"(-89.08,41.88)",FALSE,KRFD,22.134, Rochelle,IL,-21600,06:00:00,05:59:59
KCXP,39.18,-119.73,"(-119.73,39.18)",FALSE,KRNO,22.213, Carson City,NV,-28800,08:00:00,07:59:59
KCGF,41.57,-81.47,"(-81.47,41.57)",FALSE,KCLE,22.229, Willoughby Hills,OH,-18000,05:00:00,04:59:59
KSGR,29.62,-95.65,"(-95.65,29.62)",FALSE,KHOU,22.233, Sugar Land,TX,-21600,06:00:00,05:59:59
KLEB,43.63,-72.3,"(-72.3,43.63)",FALSE,KVSF,22.268, West Lebanon,NH,-18000,05:00:00,04:59:59
KMCX,40.72,-86.77,"(-86.77,40.72)",FALSE,KLAF,22.364, Monticello,IN,-18000,05:00:00,04:59:59
KMGG,45.23,-93.98,"(-93.98,45.23)",FALSE,KSTC,22.369, Maple Lake,MN,-21600,06:00:00,05:59:59
KGAI,39.17,-77.17,"(-77.17,39.17)",FALSE,KIAD,22.376, Gaithersburg,MD,-18000,05:00:00,04:59:59
KFKA,43.68,-92.17,"(-92.17,43.68)",FALSE,KRST,22.405, Preston,MN,-21600,06:00:00,05:59:59
K2G9,40.03,-79.02,"(-79.02,40.03)",FALSE,KJST,22.407, Friedens,PA,-18000,05:00:00,04:59:59
KTRK,39.32,-120.12,"(-120.12,39.32)",FALSE,KRNO,22.445, Truckee,CA,-28800,08:00:00,07:59:59
KCIR,37.07,-89.22,"(-89.22,37.07)",FALSE,KCGI,22.699, Cairo,IL,-21600,06:00:00,05:59:59
KMZZ,40.48,-85.68,"(-85.68,40.48)",FALSE,KMIE,22.709, Marion,IN,-18000,05:00:00,04:59:59
KBJJ,40.87,-81.88,"(-81.88,40.87)",FALSE,KCAK,22.722, Smithville,OH,-18000,05:00:00,04:59:59
KVQQ,30.22,-81.88,"(-81.88,30.22)",FALSE,KJAX,22.725, Jacksonville,FL,-18000,05:00:00,04:59:59
KTCM,47.12,-122.47,"(-122.47,47.12)",FALSE,KOLM,22.744, McChord Air Force Base,WA,-28800,08:00:00,07:59:59
KDXR,41.37,-73.48,"(-73.48,41.37)",FALSE,KBDR,22.832, Danbury,CT,-18000,05:00:00,04:59:59
KGWB,41.3,-85.07,"(-85.07,41.3)",FALSE,KFWA,22.839, Auburn,IN,-18000,05:00:00,04:59:59
KMAO,34.18,-79.33,"(-79.33,34.18)",FALSE,KFLO,22.864, Mullins,SC,-18000,05:00:00,04:59:59
KRNV,33.77,-90.75,"(-90.75,33.77)",FALSE,KGLH,22.871, Cleveland,MS,-21600,06:00:00,05:59:59
KW29,38.98,-76.33,"(-76.33,38.98)",FALSE,KBWI,22.908, Stevensville,MD,-18000,05:00:00,04:59:59
KFRM,43.63,-94.42,"(-94.42,43.63)",FALSE,KEST,22.933, Fairmont,MN,-21600,06:00:00,05:59:59
KPHF,37.13,-76.5,"(-76.5,37.13)",FALSE,KORF,22.945, Newport News,VA,-18000,05:00:00,04:59:59
KHYW,33.83,-79.12,"(-79.12,33.83)",FALSE,KCRE,22.97, Conway,SC,-18000,05:00:00,04:59:59
KVBT,36.35,-94.22,"(-94.22,36.35)",FALSE,KFYV,22.971, Bentonville,AR,-21600,06:00:00,05:59:59
KGOV,44.68,-84.73,"(-84.73,44.68)",FALSE,KHTL,22.992, Grayling,MI,-18000,05:00:00,04:59:59
KHRI,45.83,-119.27,"(-119.27,45.83)",FALSE,KPDT,23.031, Hermiston,OR,-28800,08:00:00,07:59:59
KY70,42.93,-85.07,"(-85.07,42.93)",FALSE,KGRR,23.035, Ionia,MI,-18000,05:00:00,04:59:59
KEGV,45.93,-89.27,"(-89.27,45.93)",FALSE,KRHI,23.066, Eagle River,WI,-21600,06:00:00,05:59:59
KPPA,35.62,-101,"(-101,35.62)",FALSE,KBGD,23.125, Pampa,TX,-21600,06:00:00,05:59:59
KDLZ,40.28,-83.12,"(-83.12,40.28)",FALSE,KCMH,23.129, Delaware,OH,-18000,05:00:00,04:59:59
KARV,45.92,-89.72,"(-89.72,45.92)",FALSE,KRHI,23.135, Woodruff,WI,-21600,06:00:00,05:59:59
KIWA,33.3,-111.65,"(-111.65,33.3)",FALSE,KPHX,23.163, Mesa,AZ,-25200,07:00:00,06:59:59
KPOV,41.22,-81.25,"(-81.25,41.22)",FALSE,KCAK,23.199, Ravenna,OH,-18000,05:00:00,04:59:59
KDTO,33.2,-97.2,"(-97.2,33.2)",FALSE,KDFW,23.202, Denton,TX,-21600,06:00:00,05:59:59
KEQY,35.02,-80.62,"(-80.62,35.02)",FALSE,KCLT,23.211, Monroe,NC,-18000,05:00:00,04:59:59
KM25,36.77,-88.58,"(-88.58,36.77)",FALSE,KPAH,23.234, Mayfield,KY,-21600,06:00:00,05:59:59
KOMH,38.25,-78.05,"(-78.05,38.25)",FALSE,KCHO,23.25, Orange,VA,-18000,05:00:00,04:59:59
KGCM,36.3,-95.48,"(-95.48,36.3)",FALSE,KTUL,23.334, Claremore,OK,-21600,06:00:00,05:59:59
KBVS,48.47,-122.42,"(-122.42,48.47)",FALSE,KBLI,23.347, Burlington,WA,-28800,08:00:00,07:59:59
KRQO,35.47,-98,"(-98,35.47)",FALSE,KOKC,23.364, El Reno,OK,-21600,06:00:00,05:59:59
KOLZ,42.67,-91.97,"(-91.97,42.67)",FALSE,KALO,23.385, Oelwein,IA,-21600,06:00:00,05:59:59
KMEH,45.52,-118.42,"(-118.42,45.52)",FALSE,KPDT,23.396, Adams,OR,-28800,08:00:00,07:59:59
KVLL,42.55,-83.18,"(-83.18,42.55)",FALSE,KDTW,23.397, Troy,MI,-18000,05:00:00,04:59:59
KHIE,44.37,-71.55,"(-71.55,44.37)",FALSE,K1V4,23.459, Whitefield,NH,-18000,05:00:00,04:59:59
KSIF,36.43,-79.85,"(-79.85,36.43)",FALSE,KGSO,23.471, Stoneville,NC,-18000,05:00:00,04:59:59
KHST,25.47,-80.37,"(-80.37,25.47)",FALSE,KMIA,23.48, Homestead,FL,-18000,05:00:00,04:59:59
KPPF,37.33,-95.5,"(-95.5,37.33)",FALSE,KCNU,23.517, Cherryvale,KS,-21600,06:00:00,05:59:59
KHAO,39.37,-84.52,"(-84.52,39.37)",FALSE,KCVG,23.523, Hamilton,OH,-18000,05:00:00,04:59:59
KOCH,31.57,-94.72,"(-94.72,31.57)",FALSE,KLFK,23.558, Nacogdoches,TX,-21600,06:00:00,05:59:59
KHZR,30.72,-91.48,"(-91.48,30.72)",FALSE,KBTR,23.607, New Roads,LA,-21600,06:00:00,05:59:59
KHYI,29.88,-97.87,"(-97.87,29.88)",FALSE,KAUS,23.639, Maxwell,TX,-21600,06:00:00,05:59:59
K9A5,34.68,-85.28,"(-85.28,34.68)",FALSE,KRMG,23.645, LaFayette,GA,-18000,05:00:00,04:59:59
KAIK,33.65,-81.68,"(-81.68,33.65)",FALSE,KDNL,23.68, Aiken,SC,-18000,05:00:00,04:59:59
KGXA,34.57,-117.67,"(-117.67,34.57)",FALSE,KPMD,23.684, Palmdale,CA,-28800,08:00:00,07:59:59
KPVB,42.68,-90.43,"(-90.43,42.68)",FALSE,KDBQ,23.732, Platteville,WI,-21600,06:00:00,05:59:59
KTAN,41.88,-71.02,"(-71.02,41.88)",FALSE,KPVD,23.837, East Taunton,MA,-18000,05:00:00,04:59:59
KSXS,31.37,-85.85,"(-85.85,31.37)",FALSE,KDHN,23.855, Enterprise,AL,-21600,06:00:00,05:59:59
KMPZ,40.95,-91.52,"(-91.52,40.95)",FALSE,KBRL,23.875, Mount Pleasant,IA,-21600,06:00:00,05:59:59
KIIB,42.45,-91.95,"(-91.95,42.45)",FALSE,KALO,23.942, Independence,IA,-21600,06:00:00,05:59:59
KW22,39,-80.27,"(-80.27,39)",FALSE,KEKN,24.046, Buckhannon,WV,-18000,05:00:00,04:59:59
KCOE,47.77,-116.82,"(-116.82,47.77)",FALSE,KSFF,24.057, Hayden,ID,-28800,08:00:00,07:59:59
KBJC,39.9,-105.1,"(-105.1,39.9)",FALSE,KDEN,24.11, Broomfield,CO,-25200,07:00:00,06:59:59
KATW,44.27,-88.52,"(-88.52,44.27)",FALSE,KGRB,24.114, Appleton,WI,-21600,06:00:00,05:59:59
KPTW,40.23,-75.55,"(-75.55,40.23)",FALSE,KRDG,24.153, Royersford,PA,-18000,05:00:00,04:59:59
KHIF,41.12,-111.97,"(-111.97,41.12)",FALSE,KSLC,24.183, Hill Air Force Base,UT,-25200,07:00:00,06:59:59
KASD,30.35,-89.82,"(-89.82,30.35)",FALSE,KNEW,24.226, Slidell,LA,-21600,06:00:00,05:59:59
KEIK,40.02,-105.05,"(-105.05,40.02)",FALSE,KDEN,24.229, Erie,CO,-25200,07:00:00,06:59:59
KI69,39.08,-84.22,"(-84.22,39.08)",FALSE,KCVG,24.23, Batavia,OH,-18000,05:00:00,04:59:59
KPLU,47.1,-122.28,"(-122.28,47.1)",FALSE,KSEA,24.255, Puyallup,WA,-28800,08:00:00,07:59:59
KPTS,37.45,-94.73,"(-94.73,37.45)",FALSE,KJLN,24.279, Pittsburg,KS,-21600,06:00:00,05:59:59
KAVQ,32.4,-111.22,"(-111.22,32.4)",FALSE,KTUS,24.431, Marana,AZ,-25200,07:00:00,06:59:59
KFTK,37.88,-85.97,"(-85.97,37.88)",FALSE,KSDF,24.5, Fort Knox,KY,-18000,05:00:00,04:59:59
KMHV,35.07,-118.15,"(-118.15,35.07)",FALSE,KWJF,24.506, Mojave,CA,-28800,08:00:00,07:59:59
KIWI,43.97,-69.72,"(-69.72,43.97)",FALSE,KAUG,24.506, Woolwich,ME,-18000,05:00:00,04:59:59
KLNS,40.12,-76.3,"(-76.3,40.12)",FALSE,KRDG,24.52, Lititz,PA,-18000,05:00:00,04:59:59
KIDI,40.62,-79.08,"(-79.08,40.62)",FALSE,KJST,24.542, Indiana,PA,-18000,05:00:00,04:59:59
KTWM,47.03,-91.75,"(-91.75,47.03)",FALSE,KDLH,24.603, Two Harbors,MN,-21600,06:00:00,05:59:59
KCVW,29.78,-93.3,"(-93.3,29.78)",FALSE,KLCH,24.652, Cameron,LA,-21600,06:00:00,05:59:59
KADG,41.87,-84.08,"(-84.08,41.87)",FALSE,KTOL,24.697, Adrian,MI,-18000,05:00:00,04:59:59
KROG,36.37,-94.08,"(-94.08,36.37)",FALSE,KFYV,24.698, Rogers,AR,-21600,06:00:00,05:59:59
KSMQ,40.62,-74.67,"(-74.67,40.62)",FALSE,KTTN,24.78, Bedminster Township,NJ,-18000,05:00:00,04:59:59
KFEP,42.25,-89.58,"(-89.58,42.25)",FALSE,KRFD,24.801, Freeport,IL,-21600,06:00:00,05:59:59
KLWM,42.72,-71.13,"(-71.13,42.72)",FALSE,KBOS,24.822, Methuen,MA,-18000,05:00:00,04:59:59
KJYM,41.92,-84.58,"(-84.58,41.92)",FALSE,KJXN,24.832, Hillsdale,MI,-18000,05:00:00,04:59:59
KVJI,36.67,-82.02,"(-82.02,36.67)",FALSE,KTRI,24.838, Abingdon,VA,-18000,05:00:00,04:59:59
K11R,30.22,-96.37,"(-96.37,30.22)",FALSE,KCLL,24.874, Brenham,TX,-21600,06:00:00,05:59:59
KOPL,30.55,-92.1,"(-92.1,30.55)",FALSE,KLFT,24.906, Opelousas,LA,-21600,06:00:00,05:59:59
KEWB,41.68,-70.95,"(-70.95,41.68)",FALSE,KPVD,24.916, New Bedford,MA,-18000,05:00:00,04:59:59
KLHB,30.87,-96.62,"(-96.62,30.87)",FALSE,KCLL,24.939, Hearne,TX,-21600,06:00:00,05:59:59
KSBP,35.23,-120.63,"(-120.63,35.23)",FALSE,KSMX,24.97, San Luis Obispo,CA,-28800,08:00:00,07:59:59
KACB,44.98,-85.2,"(-85.2,44.98)",FALSE,KTVC,25.036, Bellaire,MI,-18000,05:00:00,04:59:59
KSFB,28.77,-81.22,"(-81.22,28.77)",FALSE,KMCO,25.086, Sanford,FL,-18000,05:00:00,04:59:59
KARG,36.12,-90.92,"(-90.92,36.12)",FALSE,KJBR,25.088, Walnut Ridge,AR,-21600,06:00:00,05:59:59
KBTP,40.77,-79.95,"(-79.95,40.77)",FALSE,KPIT,25.09, Butler,PA,-18000,05:00:00,04:59:59
KHDE,40.45,-99.32,"(-99.32,40.45)",FALSE,KEAR,25.099, Holdrege,NE,-21600,06:00:00,05:59:59
KFDW,34.32,-81.12,"(-81.12,34.32)",FALSE,KCUB,25.137, Winnsboro,SC,-18000,05:00:00,04:59:59
KJSV,35.43,-94.8,"(-94.8,35.43)",FALSE,KFSM,25.19, Sallisaw,OK,-21600,06:00:00,05:59:59
KNFW,32.78,-97.43,"(-97.43,32.78)",FALSE,KDFW,25.204, Fort Worth,TX,-21600,06:00:00,05:59:59
KD95,43.07,-83.27,"(-83.27,43.07)",FALSE,KFNT,25.212, Lapeer,MI,-18000,05:00:00,04:59:59
KGKT,35.85,-83.53,"(-83.53,35.85)",FALSE,KTYS,25.291, Sevierville,TN,-18000,05:00:00,04:59:59
KFOK,40.85,-72.62,"(-72.62,40.85)",FALSE,KISP,25.333, Hampton Bays,NY,-18000,05:00:00,04:59:59
KGTU,30.68,-97.68,"(-97.68,30.68)",FALSE,KATT,25.444, Georgetown,TX,-21600,06:00:00,05:59:59
KFFL,41.03,-91.97,"(-91.97,41.03)",FALSE,KOTM,25.468, Fairfield,IA,-21600,06:00:00,05:59:59
K5R8,30.43,-93.47,"(-93.47,30.43)",FALSE,KLCH,25.537, DeQuincy,LA,-21600,06:00:00,05:59:59
KPMV,40.95,-95.92,"(-95.92,40.95)",FALSE,KOMA,25.586, Plattsmouth,NE,-21600,06:00:00,05:59:59
KAWG,41.27,-91.67,"(-91.67,41.27)",FALSE,KIOW,25.638, Washington,IA,-21600,06:00:00,05:59:59
KSUT,33.93,-78.08,"(-78.08,33.93)",FALSE,KILM,25.65, Oak Island,NC,-18000,05:00:00,04:59:59
KRKR,35.02,-94.62,"(-94.62,35.02)",FALSE,KFSM,25.654, Poteau,OK,-21600,06:00:00,05:59:59
KCVO,44.5,-123.27,"(-123.27,44.5)",FALSE,KEUG,25.684, Corvallis,OR,-28800,08:00:00,07:59:59
KBCB,37.22,-80.42,"(-80.42,37.22)",FALSE,KROA,25.689, Blacksburg,VA,-18000,05:00:00,04:59:59
KRBL,40.15,-122.25,"(-122.25,40.15)",FALSE,KRDD,25.7, Red Bluff,CA,-28800,08:00:00,07:59:59
KEOK,40.47,-91.42,"(-91.42,40.47)",FALSE,KBRL,25.709, Keokuk,IA,-21600,06:00:00,05:59:59
KAZE,31.88,-82.65,"(-82.65,31.88)",FALSE,KAMG,25.74, Hazlehurst,GA,-18000,05:00:00,04:59:59
KMQS,39.98,-75.87,"(-75.87,39.98)",FALSE,KILG,25.769, Coatesville,PA,-18000,05:00:00,04:59:59
KDCY,38.7,-87.13,"(-87.13,38.7)",FALSE,KLWV,25.789, Washington,IN,-18000,05:00:00,04:59:59
KPZQ,45.4,-83.82,"(-83.82,45.4)",FALSE,KAPN,25.842, Rogers City,MI,-18000,05:00:00,04:59:59
KJXI,32.7,-94.95,"(-94.95,32.7)",FALSE,KGGG,25.852, Gilmer,TX,-21600,06:00:00,05:59:59
KGHG,42.1,-70.67,"(-70.67,42.1)",FALSE,KBOS,25.857, Marshfield,MA,-18000,05:00:00,04:59:59
KLCI,43.57,-71.42,"(-71.42,43.57)",FALSE,KCON,25.878, Gilford,NH,-18000,05:00:00,04:59:59
KRAS,27.82,-97.08,"(-97.08,27.82)",FALSE,KCRP,25.902, Port Aransas,TX,-21600,06:00:00,05:59:59
KONA,44.07,-91.7,"(-91.7,44.07)",FALSE,KLSE,25.942, Winona,MN,-21600,06:00:00,05:59:59
KXMR,28.47,-80.57,"(-80.57,28.47)",FALSE,KMLB,26.024, Flight Control Road,Florida,-18000,05:00:00,04:59:59
KCVB,29.35,-98.85,"(-98.85,29.35)",FALSE,KSAT,26.029, La Coste,TX,-21600,06:00:00,05:59:59
KMAE,36.98,-120.12,"(-120.12,36.98)",FALSE,KFAT,26.07, Madera,CA,-28800,08:00:00,07:59:59
KSRB,36.05,-85.53,"(-85.53,36.05)",FALSE,KCSV,26.086, Sparta,TN,-21600,06:00:00,05:59:59
KIAH,30,-95.37,"(-95.37,30)",FALSE,KHOU,26.128, Houston,TX,-21600,06:00:00,05:59:59
KRZR,35.22,-84.8,"(-84.8,35.22)",FALSE,KCHA,26.14, Cleveland,TN,-18000,05:00:00,04:59:59
KPRG,39.7,-87.67,"(-87.67,39.7)",FALSE,KHUF,26.204, Paris,IL,-21600,06:00:00,05:59:59
KGLW,37.03,-85.95,"(-85.95,37.03)",FALSE,KBWG,26.264, Glasgow,KY,-21600,06:00:00,05:59:59
KSHD,38.27,-78.9,"(-78.9,38.27)",FALSE,KCHO,26.279, Weyers Cave,VA,-18000,05:00:00,04:59:59
KRSW,26.53,-81.75,"(-81.75,26.53)",FALSE,KAPF,26.285, Fort Myers,FL,-18000,05:00:00,04:59:59
KAUM,43.67,-92.92,"(-92.92,43.67)",FALSE,KRST,26.295, Austin,MN,-21600,06:00:00,05:59:59
KLEW,44.03,-70.27,"(-70.27,44.03)",FALSE,KPWM,26.298, Auburn,ME,-18000,05:00:00,04:59:59
KMHL,39.1,-93.2,"(-93.2,39.1)",FALSE,KDMO,26.305, Marshall,MO,-21600,06:00:00,05:59:59
K9L2,34.97,-117.87,"(-117.87,34.97)",FALSE,KWJF,26.311, Edwards,CA,-28800,08:00:00,07:59:59
KVER,38.95,-92.68,"(-92.68,38.95)",FALSE,KCOU,26.32, Boonville,MO,-21600,06:00:00,05:59:59
KFIG,41.05,-78.42,"(-78.42,41.05)",FALSE,KDUJ,26.328, Clearfield,PA,-18000,05:00:00,04:59:59
KASL,32.52,-94.3,"(-94.3,32.52)",FALSE,KGGG,26.329, Marshall,TX,-21600,06:00:00,05:59:59
KCQF,30.47,-87.88,"(-87.88,30.47)",FALSE,KMOB,26.362, Fairhope,AL,-21600,06:00:00,05:59:59
KMFV,37.63,-75.77,"(-75.77,37.63)",FALSE,KWAL,26.42, Melfa,VA,-18000,05:00:00,04:59:59
KVES,40.2,-84.53,"(-84.53,40.2)",FALSE,KDAY,26.429, Versailles,OH,-18000,05:00:00,04:59:59
KMNH,39.22,-104.65,"(-104.65,39.22)",FALSE,KAPA,26.436, Elbert,CO,-25200,07:00:00,06:59:59
KLHZ,36.02,-78.33,"(-78.33,36.02)",FALSE,KRDU,26.497, Louisburg,NC,-18000,05:00:00,04:59:59
KFSO,44.93,-73.1,"(-73.1,44.93)",FALSE,KPBG,26.522, Swanton,VT,-18000,05:00:00,04:59:59
KCMD,34.27,-86.85,"(-86.85,34.27)",FALSE,KHSV,26.557, Falkville,AL,-21600,06:00:00,05:59:59
KPTB,37.17,-77.52,"(-77.52,37.17)",FALSE,KRIC,26.561, Petersburg,VA,-18000,05:00:00,04:59:59
KEDN,31.3,-85.9,"(-85.9,31.3)",FALSE,KDHN,26.6, Enterprise,AL,-21600,06:00:00,05:59:59
KCMY,43.97,-90.73,"(-90.73,43.97)",FALSE,KLSE,26.614, Sparta,WI,-21600,06:00:00,05:59:59
KSTE,44.55,-89.53,"(-89.53,44.55)",FALSE,KAUW,26.624, Stevens Point,WI,-21600,06:00:00,05:59:59
KOZW,42.62,-83.97,"(-83.97,42.62)",FALSE,KFNT,26.631, Howell,MI,-18000,05:00:00,04:59:59
KPTK,42.67,-83.42,"(-83.42,42.67)",FALSE,KFNT,26.634, Waterford charter Township,MI,-18000,05:00:00,04:59:59
KLYV,43.62,-96.22,"(-96.22,43.62)",FALSE,KFSD,26.662, Luverne,MN,-21600,06:00:00,05:59:59
K3J7,33.6,-83.13,"(-83.13,33.6)",FALSE,KAHN,26.772, Greensboro,GA,-18000,05:00:00,04:59:59
KCKN,47.85,-96.62,"(-96.62,47.85)",FALSE,KGFK,26.845, Crookston,MN,-21600,06:00:00,05:59:59
KSFQ,36.68,-76.6,"(-76.6,36.68)",FALSE,KORF,26.85, Suffolk,VA,-18000,05:00:00,04:59:59
KJDD,32.75,-95.5,"(-95.5,32.75)",FALSE,KTYR,26.893, Mineola,TX,-21600,06:00:00,05:59:59
KHVS,34.4,-80.12,"(-80.12,34.4)",FALSE,KFLO,26.957, Hartsville,SC,-18000,05:00:00,04:59:59
KBUY,36.05,-79.47,"(-79.47,36.05)",FALSE,KGSO,27.027, Burlington,NC,-18000,05:00:00,04:59:59
KMXO,42.22,-91.17,"(-91.17,42.22)",FALSE,KDBQ,27.044, Monticello,IA,-21600,06:00:00,05:59:59
KNQI,27.5,-97.82,"(-97.82,27.5)",FALSE,KCRP,27.05, Kingsville,TX,-21600,06:00:00,05:59:59
KY51,43.58,-90.9,"(-90.9,43.58)",FALSE,KLSE,27.111, Viroqua,WI,-21600,06:00:00,05:59:59
KLKU,38.02,-77.97,"(-77.97,38.02)",FALSE,KCHO,27.191, Louisa,VA,-18000,05:00:00,04:59:59
KFDK,39.42,-77.37,"(-77.37,39.42)",FALSE,KHGR,27.24, Frederick,MD,-18000,05:00:00,04:59:59
KMWO,39.53,-84.4,"(-84.4,39.53)",FALSE,KDAY,27.296, Middletown,OH,-18000,05:00:00,04:59:59
KF70,33.57,-117.13,"(-117.13,33.57)",FALSE,KOKB,27.31, Murrieta,CA,-28800,08:00:00,07:59:59
KAPG,39.47,-76.17,"(-76.17,39.47)",FALSE,KDMH,27.386, Aberdeen Proving Ground,MD,-18000,05:00:00,04:59:59
KW13,38.08,-78.95,"(-78.95,38.08)",FALSE,KCHO,27.403, Waynesboro,VA,-18000,05:00:00,04:59:59
KMUT,41.37,-91.15,"(-91.15,41.37)",FALSE,KIOW,27.407, Muscatine,IA,-21600,06:00:00,05:59:59
KBUU,42.68,-88.3,"(-88.3,42.68)",FALSE,KMKE,27.55, Burlington,WI,-21600,06:00:00,05:59:59
KW78,36.68,-78.85,"(-78.85,36.68)",FALSE,KDAN,27.68, South Boston,VA,-18000,05:00:00,04:59:59
KNYG,38.5,-77.28,"(-77.28,38.5)",FALSE,KDCA,27.688, Indian Head,MD,-18000,05:00:00,04:59:59
KNJM,34.67,-77.02,"(-77.02,34.67)",FALSE,KEWN,27.69, Emerald Isle,NC,-18000,05:00:00,04:59:59
KAHQ,41.23,-96.6,"(-96.6,41.23)",FALSE,KLNK,27.71, Wahoo,NE,-21600,06:00:00,05:59:59
KFAF,37.12,-76.62,"(-76.62,37.12)",FALSE,KORF,27.713, Newport News,VA,-18000,05:00:00,04:59:59
KLHW,31.87,-81.57,"(-81.57,31.87)",FALSE,KSAV,27.721, Hinesville,GA,-18000,05:00:00,04:59:59
KEGE,39.63,-106.92,"(-106.92,39.63)",FALSE,KASE,27.766, Gypsum,CO,-25200,07:00:00,06:59:59
KSCD,33.17,-86.3,"(-86.3,33.17)",FALSE,KEET,27.768, Sylacauga,AL,-21600,06:00:00,05:59:59
KLQK,34.82,-82.7,"(-82.7,34.82)",FALSE,KGSP,27.769, Liberty,SC,-18000,05:00:00,04:59:59
KMIV,39.37,-75.08,"(-75.08,39.37)",FALSE,KACY,27.781, Millville,NJ,-18000,05:00:00,04:59:59
KEDE,36.02,-76.57,"(-76.57,36.02)",FALSE,KECG,27.782, Edenton,NC,-18000,05:00:00,04:59:59
KCDH,33.62,-92.77,"(-92.77,33.62)",FALSE,KELD,27.787, Camden,AR,-21600,06:00:00,05:59:59
KCNI,34.32,-84.42,"(-84.42,34.32)",FALSE,KVPC,27.853, Ball Ground,GA,-18000,05:00:00,04:59:59
KEYF,34.6,-78.58,"(-78.58,34.6)",FALSE,KLBT,27.868, Elizabethtown,NC,-18000,05:00:00,04:59:59
KTDF,36.28,-78.98,"(-78.98,36.28)",FALSE,KDAN,27.93, Timberlake,NC,-18000,05:00:00,04:59:59
KCFE,45.17,-93.85,"(-93.85,45.17)",FALSE,KSTC,27.993, Buffalo,MN,-21600,06:00:00,05:59:59
KFWS,32.57,-97.3,"(-97.3,32.57)",FALSE,KDFW,28.013, Burleson,TX,-21600,06:00:00,05:59:59
